FIRE_NAME,FIRE_YEAR,DISCOVERY_DATE,DISCOVERY_TIME,CONT_DATE,CONT_TIME,FIRE_SIZE,LATITUDE,LONGITUDE
FOUNTAIN,2005,2453403.5,1300,2453403.5,1730,0.1,40.03694444,-121.0058333
PIGEON,2004,2453137.5,845,2453137.5,1530,0.25,38.93305556,-120.4044444
SLACK,2004,2453156.5,1921,2453156.5,2024,0.1,38.98416667,-120.7355556
DEER,2004,2453184.5,1600,2453189.5,1400,0.1,38.55916667,-119.9133333
STEVENOT,2004,2453184.5,1600,2453189.5,1200,0.1,38.55916667,-119.9330556
HIDDEN,2004,2453186.5,1800,2453187.5,1600,0.1,38.63527778,-120.1036111
FORK,2004,2453187.5,1800,2453188.5,1400,0.1,38.68833333,-120.1533333
SLATE,2005,2453437.5,1300,2453437.5,1600,0.8,40.96805556,-122.4338889
SHASTA,2005,2453444.5,1200,2453444.5,1700,1,41.23361111,-122.2833333
TANGLEFOOT,2004,2453187.5,1800,2453188.5,1800,0.1,38.54833333,-120.1491667
FORK #2,2004,2453188.5,1830,2453189.5,1900,0.1,38.69166667,-120.1597222
MOKE #2,2004,2453188.5,1730,2453189.5,2000,0.1,38.5275,-120.1061111
WRIGHTS,2004,2453251.5,1600,2453251.5,1630,0.1,38.78666667,-120.1933333
TIGER,2004,2453276.5,1200,2453276.5,1800,6,38.43333333,-120.51
BROWN,2004,2453281.5,630,2453281.5,1500,0.2,38.67583333,-120.2797222
SOPIAGO,2004,2453281.5,930,2453281.5,1400,0.1,38.56416667,-120.5422222
POWER,2004,2453284.5,1415,2453299.5,1000,16823,38.52333333,-120.2116667
FREDS,2004,2453291.5,1618,2453295.5,1800,7700,38.78,-120.26
HARTLESS,2004,2453329.5,2000,2453330.5,1630,0.1,38.945,-120.4116667
LINTO,2005,2453548.5,1007,2453548.5,1130,0.1,41.03722222,-123.5330556
CANYON,2005,2453484.5,710,2453484.5,745,0.1,34.17444444,-117.765
FOUNTAIN,2005,2453554.5,1650,2453554.5,1800,0.5,34.15388889,-117.8411111
ROBIN,2005,2453546.5,905,2453546.5,1332,0.1,38.98388889,-120.8025
HOT SPRINGS,2005,2453496.5,1145,2453499.5,1330,0.1,38.70027778,-119.8405556
SHINGLE,2005,2453559.5,15,2453559.5,45,0.01,38.45361111,-119.4586111
LOOKOUT,2005,2453487.5,1700,2453487.5,1715,0.1,33.66666667,-117.3763889
DEVIL'S GATE,2005,2453569.5,1600,2453570.5,1800,0.1,38.35361111,-119.3780556
SADDLE,2005,2453540.5,1500,2453540.5,1505,10,33.71888889,-117.4336111
PETERSON,2005,2453517.5,2015,2453517.5,2058,0.1,37.04416667,-119.3438889
WILLOW,2005,2453538.5,1530,2453538.5,2030,0.5,38.83972222,-119.8863889
DOGWOOD,2005,2453492.5,1628,2453492.5,1700,0.1,35.76888889,-118.4352778
BUCKEYE,2005,2453573.5,1600,2453573.5,1955,0.1,38.22666667,-119.3466667
SUMMERS,2005,2453572.5,1700,2453572.5,1800,0.1,38.16888889,-119.3169444
APACHE,2005,2453411.5,1337,2453411.5,1607,3,34.74833333,-119.4102778
TREEBONE,2005,2453415.5,1640,2453415.5,1900,0.1,35.88361111,-121.4569444
MARBLE,2005,2453518.5,1700,2453518.5,1740,0.1,36.21805556,-121.4991667
WHITE,2005,2453510.5,1915,2453510.5,2100,0.1,36.44833333,-121.5827778
SECRET,2005,2453573.5,1000,2453574.5,1500,0.5,38.29444444,-119.54
EAGLE,2005,2453575.5,1630,2453575.5,1745,0.1,38.22222222,-119.3869444
DEVIL,2005,2453571.5,1000,2453572.5,1136,0.1,38.3575,-119.3611111
SHERWIN,2005,2453564.5,1523,2453564.5,1600,0.1,37.53055556,-118.6272222
VISTA,2005,2453572.5,630,2453572.5,900,0.1,37.515,-118.5983333
DUCKWALL,2005,2453532.5,1756,2453533.5,930,2,37.94027778,-120.1216667
WOODFORDS,2005,2453577.5,1609,2453577.5,1648,0.1,38.76388889,-119.8538889
FAIRVIEW,2005,2453544.5,1551,2453544.5,1800,4.2,34.46666667,-119.8283333
CHIMINEAS,2005,2453552.5,1330,2453554.5,1800,90,35.13583333,-120.0025
SEVEN,2005,2453554.5,1415,2453554.5,1710,0.1,34.855,-119.0738889
MARCOS,2005,2453562.5,1702,2453562.5,1834,0.1,34.49638889,-119.8511111
TASSAJARA 1,2005,2453567.5,315,2453568.5,1500,0.3,36.2425,-121.5511111
TASSAJARA 2,2005,2453567.5,545,2453567.5,1830,0.1,36.2425,-121.5480556
SENIOR,2005,2453569.5,1456,2453569.5,1700,1,34.47138889,-119.195
SOUTH FORK,2005,2453518.5,1816,2453518.5,1925,0.3,35.63833333,-118.2811111
TENT,2005,2453519.5,1031,2453519.5,1035,0.25,35.64694444,-118.4636111
REDS,2005,2453519.5,1146,2453519.5,1204,0.25,35.66305556,-118.4436111
TILLIE,2005,2453519.5,1431,2453519.5,1700,1.1,35.70222222,-118.4536111
POOREBOY,2005,2453579.5,1145,2453579.5,1600,0.25,38.65861111,-119.7513889
STINE,2005,2453523.5,1230,2453523.5,1245,0.1,35.67861111,-118.4094444
MOBILE,2005,2453523.5,1418,2453523.5,1425,0.25,35.64972222,-118.4163889
BARBER,2005,2453579.5,1300,2453579.5,1900,0.1,38.67055556,-119.7672222
MARINA,2005,2453526.5,1420,2453526.5,1550,0.1,35.695,-118.4602778
BROOKS,2005,2453526.5,1550,2453526.5,1641,2.5,35.64138889,-118.3366667
HILL,2005,2453546.5,1400,2453546.5,2000,0.1,38.35,-119.35
FALLS,2005,2453571.5,500,2453571.5,1808,0.1,38.29888889,-119.5652778
TUTTLE,2005,2453527.5,1426,2453527.5,1810,2.1,35.68166667,-118.4588889
JANET,2005,2453563.5,1400,2453563.5,1810,0.1,38.05444444,-119.2519444
HOUSE,2005,2453534.5,1557,2453534.5,1601,0.1,35.45805556,-118.7830556
SLINKARD 2,2005,2453572.5,1700,2453575.5,1000,89,38.57361111,-119.5547222
PECHACHO,2005,2453563.5,1445,2453563.5,1530,0.1,35.46444444,-118.7563889
SWAUGER II,2005,2453546.5,1400,2453546.5,1530,0.1,38.35111111,-119.3272222
SWAUGER I,2005,2453546.5,1545,2453546.5,1700,0.1,38.35027778,-119.3308333
SAWMILL,2005,2453546.5,1400,2453546.5,1700,0.1,38.34444444,-119.3333333
192,2005,2453566.5,1020,2453566.5,1500,0.5,39.61472222,-119.9972222
WEST,2005,2453579.5,2000,2453581.5,300,0.25,38.76583333,-119.8877778
PADUA,2005,2453553.5,912,2453553.5,940,0.1,34.16222222,-117.6816667
CHEVY,2005,2453554.5,2130,2453554.5,2230,0.1,34.24222222,-117.8558333
JAG,2005,2453560.5,1115,2453560.5,1130,0.1,34.22388889,-117.6675
DARLING,2005,2453554.5,1817,2453554.5,1918,0.1,38.89694444,-120.7825
LEROY,2005,2453571.5,830,2453571.5,1000,0.1,34.12222222,-117.7505556
ANT,2005,2453518.5,1745,2453518.5,1750,0.1,35.88638889,-118.4611111
ICEHOUSE,2005,2453567.5,2200,2453567.5,2245,0.1,34.25,-117.6366667
GREENLEAF,2005,2453524.5,1325,2453524.5,1345,0.1,35.76805556,-118.4361111
DUMPSTER,2005,2453575.5,1400,2453575.5,1420,0.1,34.16805556,-117.7686111
MARSHALL,2005,2453579.5,1425,2453579.5,1440,0.1,34.15166667,-117.7436111
MAGNOLIA,2005,2453523.5,1600,2453523.5,2000,2.3,39.81722222,-120.4511111
ONE FIFTY,2005,2453404.5,820,2453404.5,840,0.1,32.82027778,-116.5897222
MORRIS,2005,2453584.5,34,2453584.5,230,0.2,34.18638889,-117.8713889
ASH,2005,2453465.5,1541,2453465.5,1630,0.1,32.73472222,-116.6847222
NINE,2005,2453574.5,1640,2453574.5,1945,0.1,34.68694444,-119.1080556
CEAGO,2005,2453576.5,1315,2453576.5,1600,8,39.11222222,-122.8166667
SLASH,2005,2453572.5,630,2453572.5,856,0.1,40.42666667,-121.0494444
HORSETHIEF,2005,2453579.5,1800,2453580.5,730,0.1,38.79083333,-119.8597222
MONITOR,2005,2453587.5,1340,2453587.5,1900,0.1,38.68,-119.6358333
EASTFORK,2005,2453587.5,1445,2453588.5,1100,0.1,38.61194444,-119.6783333
SPAULDING,2005,2453563.5,1350,2453563.5,1615,0.1,40.65166667,-120.7766667
LANDING,2005,2453570.5,1215,2453570.5,1220,0.01,40.41666667,-121.05
ISHI,2005,2453480.5,1900,2453481.5,1900,2,39.9875,-121.7863889
BEAR MINE,2005,2453589.5,1730,2453590.5,1100,0.1,38.60222222,-119.7219444
NINE,2005,2453560.5,1313,2453561.5,1800,1149,35.68805556,-118.4383333
LONG,2005,2453575.5,1705,2453576.5,1500,0.1,35.82722222,-118.2102778
MACHINE,2005,2453572.5,620,2453573.5,1600,0.3,35.96555556,-118.3175
BITTER,2005,2453571.5,1700,2453573.5,1430,0.1,36.04472222,-118.1572222
JACKASS,2005,2453572.5,1745,2453572.5,1900,0.2,39.57972222,-121.1252778
MEADOWS,2005,2453588.5,1330,2453588.5,1700,0.1,34.78166667,-119.1483333
RICH,2005,2453521.5,1729,2453521.5,1937,0.3,35.47638889,-118.7211111
CATTLE,2005,2453571.5,1815,2453571.5,1825,0.1,34.22888889,-117.7683333
OLD,2005,2453555.5,1125,2453555.5,1230,0.5,35.64833333,-118.4566667
KOA,2005,2453556.5,1635,2453556.5,2300,69,35.65222222,-118.3566667
BURLANDO,2005,2453590.5,1545,2453590.5,1830,3.7,35.74722222,-118.4219444
EAGLE CREEK,2005,2453591.5,1245,2453591.5,1630,0.1,38.58333333,-119.83
SUPRISE,2005,2453593.5,1320,2453593.5,1630,0.25,38.30888889,-119.5427778
JACKSON,2005,2453579.5,1319,2453579.5,1550,0.1,38.30444444,-119.2638889
AURORA,2005,2453582.5,920,2453582.5,1115,0.1,38.25194444,-119.1244444
LOG,2005,2453579.5,1600,2453579.5,2000,0.1,38.24611111,-119.3313889
DITCH,2005,2453595.5,1430,2453595.5,1450,0.1,38.21305556,-119.3102778
BLUE LAKES,2005,2453596.5,1025,2453596.5,1228,0.1,38.74805556,-119.9394444
WALKER,2005,2453588.5,1739,2453589.5,1800,27.9,35.6575,-118.0455556
SNOW,2005,2453589.5,1530,2453591.5,600,0.1,35.94722222,-118.2905556
DEAD,2005,2453589.5,1210,2453590.5,1500,0.1,36.05361111,-118.1933333
LOST,2005,2453589.5,1450,2453590.5,600,0.1,36.04888889,-118.1547222
FISH,2005,2453590.5,1508,2453590.5,1800,0.1,36.06111111,-118.2327778
KNOB,2005,2453591.5,630,2453591.5,1600,0.1,36.09,-118.1702778
SIRRETTA,2005,2453589.5,1530,2453595.5,1200,0.1,35.92638889,-118.3166667
PINYON,2005,2453588.5,1150,2453589.5,1200,0.1,35.67555556,-118.1136111
POTATO,2005,2453589.5,820,2453589.5,1500,0.5,35.74916667,-118.3652778
SONOMA,2005,2453566.5,1835,2453566.5,2010,0.1,38.39694444,-119.0977778
ROUND,2005,2453591.5,1436,2453591.5,1830,0.25,37.60027778,-118.6411111
GROVER 3,2005,2453598.5,1640,2453598.5,2030,0.25,38.705,-119.8238889
PAHA,2005,2453598.5,1745,2453598.5,1830,0.1,38.17888889,-119.3291667
ARROW,2005,2453598.5,1227,2453598.5,1300,0.25,37.61138889,-118.6102778
NEEDLE,2005,2453544.5,2015,2453544.5,2110,0.1,36.70583333,-118.9980556
BALD,2005,2453536.5,1315,2453536.5,2000,1,38.13416667,-120.1355556
BOUNDARY,2005,2453446.5,1830,2453446.5,1840,0.1,41.21138889,-123.6558333
SPENCER,2005,2453477.5,1200,2453499.5,1800,0.1,39.68972222,-120.7172222
BEER,2005,2453553.5,1115,2453553.5,1204,0.1,38.00833333,-120.1538889
SWIM,2005,2453559.5,1137,2453559.5,1500,3,34.47944444,-118.7686111
COFFEE,2005,2453537.5,1530,2453537.5,1600,7,36.1375,-118.7433333
FREEMAN,2005,2453551.5,2000,2453551.5,2359,0.1,36.13,-118.5380556
RIVER,2005,2453571.5,1645,2453571.5,2000,11.5,36.15944444,-118.7175
GRASSHOPPER,2005,2453572.5,1700,2453573.5,300,6.75,36.29972222,-118.4208333
WISHON,2005,2453578.5,1655,2453578.5,1930,22,36.15916667,-118.7125
THIRTY EIGHT,2005,2453541.5,1645,2453541.5,1800,0.1,33.13138889,-116.8886111
ROCK,2005,2453587.5,1250,2453587.5,2000,12,37.55694444,-118.6613889
RIFLE,2005,2453595.5,1605,2453595.5,1630,0.2,33.10833333,-116.8777778
PAMO 2,2005,2453599.5,1250,2453599.5,1345,0.2,33.12722222,-116.8680556
PAMO,2005,2453582.5,1315,2453582.5,1530,2,33.11083333,-116.8472222
WILCOX,2005,2453608.5,2129,2453608.5,2300,0.1,40.75111111,-121.8041667
GLADIOLA,2005,2453504.5,1130,2453504.5,1215,0.1,32.68305556,-116.5072222
BOB,2005,2453505.5,945,2453505.5,1015,0.1,32.71138889,-116.5569444
BARRIER,2005,2453505.5,1100,2453505.5,1215,0.1,32.71388889,-116.5869444
MILLER,2005,2453604.5,1458,2453604.5,2015,0.5,39.87222222,-121.1475
MOTORCYCLE,2005,2453520.5,1115,2453520.5,1143,0.1,32.8175,-116.5272222
MUSTARD,2005,2453534.5,857,2453534.5,925,0.2,32.83666667,-116.7338889
ENGLAND,2005,2453611.5,1812,2453611.5,1840,0.1,39.96222222,-120.9038889
RAMP,2005,2453543.5,2300,2453543.5,2359,0.2,32.82,-116.5466667
RICE,2005,2453608.5,1552,2453608.5,1805,0.1,34.78055556,-119.4683333
PINE,2005,2453551.5,1400,2453551.5,1600,0.1,32.91916667,-116.5033333
SECO,2005,2453589.5,400,2453589.5,1200,4,36.23083333,-121.4502778
WILLOWS,2005,2453555.5,1813,2453555.5,1830,0.5,32.83388889,-116.7302778
PAUMA,2005,2453556.5,1405,2453556.5,2000,70,33.345,-116.9927778
HARRISON,2005,2453472.5,1535,2453472.5,1740,3,33.32222222,-116.9652778
TOBACCO,2005,2453594.5,1546,2453594.5,1615,0.1,33.275,-116.8333333
PALOMAR,2005,2453553.5,1330,2453553.5,1445,1,33.325,-116.9611111
ADAMS,2005,2453608.5,1301,2453608.5,1500,10,33.34027778,-116.9880556
SURVIVAL,2005,2453542.5,1245,2453542.5,1400,0.1,33.34444444,-116.7130556
HAUSER,2005,2453565.5,2052,2453567.5,1800,12,32.68277778,-116.6341667
LA POSTA,2005,2453572.5,1415,2453572.5,1545,0.1,32.7375,-116.3936111
PAGGE,2005,2453519.5,1359,2453519.5,1430,0.1,39.11555556,-120.7794444
SHEEP,2005,2453573.5,1453,2453573.5,2000,0.6,32.77027778,-116.4583333
GENESEE,2005,2453612.5,828,2453612.5,1445,1,40.05694444,-120.7066667
BELDEN TOWN,2005,2453606.5,1340,2453606.5,1600,0.1,40.00472222,-121.2605556
COTTONWOOD,2005,2453578.5,1810,2453578.5,1900,0.1,33.43277778,-116.8602778
BLACK,2005,2453610.5,957,2453610.5,2000,5,33.13277778,-116.7913889
RAVEN,2005,2453588.5,1255,2453588.5,2000,6,33.61166667,-116.8719444
WILCOX,2005,2453545.5,1900,2453546.5,1430,0.25,41.91166667,-120.8997222
ROUTE 1,2005,2453482.5,1430,2453482.5,1630,0.75,40.47111111,-123.5094444
DENNY,2005,2453489.5,1354,2453489.5,1553,0.1,40.8875,-123.5069444
GROUSE,2005,2453489.5,1439,2453490.5,1310,0.1,40.16111111,-123.1597222
CAMERON,2005,2453582.5,1345,2453582.5,1900,0.1,32.71444444,-116.46
BARRETT,2005,2453606.5,1110,2453608.5,1800,124,32.68194444,-116.64
GLACIER,2005,2453616.5,1614,2453616.5,2000,0.5,37.12638889,-118.3830556
VALLEY,2005,2453618.5,1622,2453618.5,1900,0.25,39.94055556,-121.0336111
LOOKOUT,2005,2453571.5,2045,2453572.5,1500,0.1,37.73,-118.9475
JUNCTION,2005,2453624.5,1505,2453624.5,1600,0.1,39.95166667,-120.9144444
FIR,2005,2453625.5,1322,2453626.5,1454,0.1,40.28083333,-121.5738889
SAWDUST,2005,2453607.5,1722,2453607.5,1900,0.1,40.09305556,-120.91
CHRISTMAS,2005,2453556.5,1306,2453556.5,1550,0.3,38.95833333,-120.7216667
WENCH,2005,2453590.5,1535,2453590.5,1711,0.1,38.90138889,-120.37
MILLIONAIRE,2005,2453598.5,850,2453598.5,1017,0.1,38.885,-120.3533333
BOTTLE,2005,2453610.5,2015,2453610.5,2337,0.1,38.94,-120.8433333
TUNNEL,2005,2453571.5,2130,2453572.5,1300,0.1,37.80138889,-118.935
WENTWORTH,2005,2453615.5,1031,2453615.5,1044,0.1,38.94527778,-120.7233333
TRIPLETREE,2005,2453572.5,1930,2453573.5,1600,0.1,37.65194444,-119.0513889
BALDERSON,2005,2453617.5,2150,2453618.5,1100,0.3,38.91833333,-120.7616667
OWENS,2005,2453579.5,1454,2453579.5,1830,0.1,37.75083333,-118.7680556
SHOEMAKER,2005,2453619.5,1750,2453619.5,1949,0.1,38.89833333,-120.7994444
LAUREL,2005,2453579.5,1519,2453579.5,2005,0.1,37.60166667,-118.8852778
GREY,2005,2453631.5,1133,2453631.5,1150,0.1,38.77666667,-120.9119444
LOST,2005,2453558.5,900,2453558.5,1630,0.1,39.00833333,-120.1833333
POND,2005,2453582.5,856,2453582.5,1711,0.1,37.60111111,-118.8688889
BALDWIN,2005,2453558.5,1700,2453558.5,1715,0.1,38.94333333,-120.07
POINT,2005,2453585.5,830,2453585.5,1030,0.1,38.94111111,-120.0516667
AVERY,2005,2453570.5,1614,2453571.5,1200,2,38.11888889,-120.3511111
KNIGHT,2005,2453571.5,1611,2453571.5,2200,5,38.15222222,-120.2188889
CAMPGROUND,2005,2453624.5,1300,2453624.5,1430,0.1,33.34972222,-116.6663889
CINCO,2005,2453495.5,920,2453495.5,1030,0.1,37.65166667,-118.8183333
TWIN,2005,2453574.5,1825,2453575.5,1600,0.1,34.31861111,-117.9263889
FORDYCE,2005,2453577.5,1100,2453577.5,1530,0.1,39.33527778,-120.6063889
FISH,2005,2453586.5,1050,2453586.5,1150,0.1,34.15944444,-117.92
DAFFODIL,2005,2453521.5,1300,2453521.5,1515,0.1,40.96694444,-123.6444444
GASQUET DUMP,2005,2453522.5,2110,2453523.5,1200,0.25,41.84777778,-123.9569444
LOVE,2005,2453483.5,930,2453483.5,1016,0.1,33.26611111,-116.7786111
TRANSIENT,2005,2453592.5,1118,2453592.5,1215,0.1,34.23555556,-117.6555556
EAST,2005,2453589.5,1221,2453589.5,1235,0.1,34.22972222,-117.7727778
LAUREL,2005,2453589.5,1532,2453589.5,2030,3,34.16555556,-117.9047222
LA JOLLA,2005,2453599.5,1227,2453599.5,1246,2,33.28138889,-116.8502778
NATE,2005,2453623.5,2100,2453623.5,2115,1,33.33277778,-116.9663889
NORTH,2005,2453593.5,1709,2453593.5,1800,0.1,34.24861111,-117.8636111
I-80,2005,2453626.5,10,2453626.5,200,0.1,39.45055556,-120.0075
BURRO,2005,2453594.5,1425,2453594.5,1540,2,34.24805556,-117.8408333
GATE,2005,2453610.5,1208,2453610.5,1235,0.1,34.16777778,-117.7686111
BICHOTA,2005,2453609.5,1308,2453609.5,2100,5,34.26638889,-117.8358333
CHIHUAHUA,2005,2453623.5,1350,2453623.5,1430,0.1,33.37055556,-116.7497222
RINCON,2005,2453618.5,1254,2453618.5,2355,20,34.21972222,-117.8691667
168,2005,2453547.5,1730,2453547.5,2030,0.3,37.06944444,-119.3494444
GLASS,2005,2453615.5,1452,2453618.5,1430,20,37.75138889,-119.0166667
LOG,2005,2453567.5,1050,2453567.5,1141,0.1,37.68472222,-118.5844444
RANGE,2005,2453602.5,1841,2453602.5,2113,1,34.50611111,-119.7505556
LOCKWOOD,2005,2453606.5,1018,2453606.5,1100,0.1,34.74583333,-119.0622222
BROWN'S,2005,2453531.5,1156,2453531.5,1230,0.1,40.41388889,-123.5172222
OAK BOTTOM,2005,2453544.5,200,2453544.5,700,0.1,41.37666667,-123.4483333
MRYTLE,2005,2453555.5,1006,2453555.5,1015,0.1,41.80416667,-124.0586111
PATRICKS,2005,2453555.5,1518,2453555.5,1522,0.1,41.88277778,-123.8483333
RUTH,2005,2453562.5,1120,2453562.5,1135,0.1,40.26944444,-123.32
AMERICAN,2005,2453559.5,1059,2453559.5,2130,0.1,39.61861111,-121.0338889
DEVILS,2005,2453624.5,1506,2453624.5,1800,0.1,39.69444444,-121.0613889
KYBURZ,2005,2453579.5,1515,2453579.5,1530,0.1,39.59194444,-120.925
MORRIS,2005,2453581.5,1336,2453581.5,1900,0.2,39.64972222,-120.9047222
HILL,2005,2453582.5,1100,2453582.5,1152,0.1,39.41861111,-120.0827778
JACK,2005,2453582.5,1312,2453582.5,1430,0.25,39.31638889,-120.2258333
CAMINO#1,2005,2453587.5,1215,2453587.5,1225,0.1,39.74055556,-120.4497222
CAMINO#2,2005,2453590.5,815,2453590.5,825,0.1,39.73333333,-120.4336111
RAMP,2005,2453591.5,1330,2453591.5,1430,0.25,39.40805556,-120.1116667
LUSK,2005,2453591.5,1345,2453591.5,1350,0.1,39.62694444,-120.5688889
TRUMBULL,2005,2453645.5,1000,2453645.5,1500,0.25,38.0625,-119.2408333
SAWMILL,2005,2453592.5,1651,2453592.5,2012,0.3,39.43777778,-120.5938889
BASSETTS FIRE,2005,2453595.5,1513,2453595.5,1712,0.1,39.61972222,-120.5861111
ONION,2005,2453596.5,1400,2453596.5,1452,0.1,39.26388889,-120.6436111
MILL FIRE,2005,2453596.5,1535,2453596.5,1900,0.1,39.45555556,-120.0475
POLE,2005,2453598.5,1100,2453598.5,1300,0.1,39.23305556,-120.2497222
GROUNDHOG,2005,2453599.5,1012,2453599.5,1345,0.1,39.51277778,-120.2047222
TREASURE,2005,2453599.5,1105,2453599.5,1621,0.1,39.53305556,-120.3527778
MAGONIGAL,2005,2453600.5,1730,2453600.5,2200,0.1,39.35388889,-120.4713889
SPRUCE,2005,2453640.5,1700,2453640.5,2330,0.25,39.57638889,-122.9336111
POTATO,2005,2453624.5,1816,2453625.5,1500,0.25,40.18,-121.5375
CHERRY,2005,2453640.5,903,2453640.5,1500,0.25,39.60833333,-122.9583333
PASTURE,2005,2453640.5,1116,2453640.5,1630,0.1,39.66388889,-123.0402778
HORSE,2005,2453640.5,950,2453640.5,1537,0.1,39.66527778,-123.0402778
SUGAR,2005,2453550.5,1300,2453550.5,1500,0.1,38.53833333,-120.25
BEAR,2005,2453592.5,1800,2453592.5,2100,0.1,38.53472222,-120.2013889
UPPER,2005,2453598.5,1630,2453600.5,1800,0.25,38.55805556,-120.2527778
CLOVER,2005,2453599.5,1020,2453606.5,1600,3.5,38.41694444,-119.9116667
COLE,2005,2453608.5,1500,2453608.5,1600,0.1,38.53666667,-120.1880556
DONEY,2005,2453478.5,2205,2453478.5,2220,0.1,40.885,-122.3836111
CAT,2005,2453610.5,1300,2453610.5,1325,0.1,38.58527778,-120.2969444
MAIDEN,2005,2453640.5,800,2453640.5,1700,0.1,38.635,-120.1816667
PINE,2005,2453487.5,1930,2453488.5,1500,0.1,40.40222222,-123.2333333
ROOKIE,2005,2453542.5,1005,2453542.5,1007,0.1,33.46861111,-116.9330556
LEXINGTON,2005,2453625.5,1330,2453625.5,1630,0.1,39.67388889,-121.0097222
WARD,2005,2453598.5,1100,2453599.5,1230,0.1,39.13305556,-120.2497222
WILLOW,2005,2453598.5,1100,2453599.5,1400,0.1,39.12,-120.2702778
INDEPENDENCE,2005,2453603.5,950,2453603.5,1021,0.1,39.33,-120.0897222
VOLCANO FIRE,2005,2453604.5,1600,2453604.5,2055,0.1,39.60666667,-120.6247222
CORNISH,2005,2453605.5,1220,2453605.5,1514,0.1,39.49944444,-120.7788889
CAMINO#3,2005,2453606.5,1220,2453606.5,1225,0.1,39.73027778,-120.4566667
ONION#1,2005,2453598.5,1916,2453598.5,2020,0.1,39.51638889,-120.2997222
GRIFFON,2005,2453565.5,1125,2453565.5,1135,0.1,40.27,-123.3183333
SHELLY,2005,2453566.5,1600,2453566.5,1730,0.1,41.87666667,-123.8466667
RED GATE,2005,2453645.5,1250,2453645.5,1255,0.1,33.29972222,-116.9163889
FLAT CAMP,2005,2453567.5,1045,2453567.5,1200,0.1,41.68666667,-123.9130556
GASQUET MOUNTAIN,2005,2453567.5,1518,2453567.5,1535,0.1,41.9075,-124.0330556
COOPER,2005,2453568.5,1110,2453568.5,1125,0.1,41.83277778,-124.0347222
GRIFFON 2,2005,2453570.5,1045,2453570.5,1105,0.1,41.86111111,-123.8708333
GULCH,2005,2453573.5,930,2453573.5,1256,0.1,40.92388889,-123.6225
HOBART,2005,2453576.5,1718,2453576.5,1755,0.25,40.31444444,-123.3608333
POWERLINE,2005,2453576.5,1710,2453576.5,1720,0.1,40.28333333,-123.3922222
FLARE,2005,2453621.5,2315,2453621.5,2345,0.1,34.20555556,-117.8136111
PALM,2005,2453642.5,1610,2453642.5,1630,0.1,34.15222222,-117.8336111
AZUSA,2005,2453647.5,1753,2453647.5,1800,0.1,34.1425,-117.8922222
BUTTE,2005,2453568.5,130,2453568.5,1153,1.15,41.6325,-121.3916667
STUMP,2005,2453631.5,1730,2453631.5,1800,0.1,36.76805556,-118.9558333
214,2005,2453577.5,1445,2453577.5,1945,0.5,41.55333333,-120.6744444
CEDARBROOK,2005,2453632.5,1710,2453632.5,1930,0.1,36.71222222,-118.9986111
SAND BUTTE,2005,2453581.5,1807,2453581.5,1926,0.1,41.66805556,-121.4344444
SAMPSON FIRE,2005,2453633.5,900,2453633.5,1200,0.1,36.76944444,-119.1036111
BSFMU2,2005,2453587.5,1655,2453593.5,1600,10,41.63861111,-120.7075
CREEK,2005,2453633.5,1000,2453634.5,1300,0.1,34.31916667,-117.8836111
FLOWER,2005,2453554.5,1850,2453554.5,1915,0.1,34.23,-117.7852778
GROUSE,2005,2453588.5,1600,2453588.5,2000,0.1,35.4075,-118.3344444
LAKEVIEW,2005,2453580.5,1530,2453580.5,1545,0.25,39.12722222,-122.8511111
PEAVINE,2005,2453637.5,1545,2453637.5,1900,0.25,39.78472222,-121.3766667
LEWIS,2005,2453640.5,810,2453640.5,1230,0.25,39.58333333,-121.1188889
FORESTDALE,2005,2453640.5,700,2453640.5,1740,0.1,38.66861111,-119.9630556
COTTONWOOD,2005,2453553.5,1835,2453553.5,2103,0.1,37.98222222,-120.02
POMPYS,2005,2453640.5,950,2453640.5,1800,0.25,39.70861111,-121.2375
BUCKSKIN,2005,2453568.5,1000,2453568.5,1230,0.1,38.64305556,-120.3027778
MIDDLE FORK,2005,2453586.5,1400,2453586.5,1505,0.1,38.585,-120.2980556
FORNI,2005,2453598.5,655,2453598.5,1700,0.1,38.81138889,-120.1730556
STRAWBERRY,2005,2453598.5,700,2453598.5,1615,0.1,38.80166667,-120.1802778
SILVER,2005,2453640.5,1010,2453640.5,1225,0.1,39.80638889,-121.3561111
RODY,2005,2453640.5,1010,2453640.5,1700,0.1,39.79861111,-121.3411111
LOST,2005,2453640.5,1530,2453640.5,1730,0.1,39.58222222,-121.1452778
OAK,2005,2453640.5,1510,2453641.5,1325,0.1,39.55555556,-121.0583333
WHISKEY,2005,2453642.5,1010,2453643.5,1200,5,39.76361111,-121.1505556
CREEK,2005,2453602.5,600,2453602.5,715,0.1,39.25666667,-122.9463889
PINE-1,2005,2453611.5,1540,2453611.5,1600,0.5,39.30333333,-123.0922222
FIELDS,2005,2453647.5,1209,2453647.5,1700,0.1,39.55666667,-121.1908333
MIDDLE2,2005,2453611.5,1650,2453611.5,1745,1,39.31055556,-123.0727778
BAR,2005,2453646.5,1600,2453647.5,1145,0.5,39.78027778,-121.4091667
CLOVER,2005,2453629.5,1435,2453631.5,1800,775,39.16972222,-122.8872222
BEVINS,2005,2453640.5,900,2453640.5,1500,0.4,39.34944444,-122.9161111
BACHLOR,2005,2453639.5,1900,2453639.5,2300,0.4,39.22888889,-122.9697222
CROCKER,2005,2453640.5,800,2453642.5,1200,0.1,39.54194444,-123.0847222
BOOTH,2005,2453640.5,900,2453640.5,1630,0.1,39.48527778,-122.9847222
CROSSING,2005,2453640.5,900,2453640.5,2200,0.2,39.48916667,-122.9961111
RICE,2005,2453641.5,1530,2453642.5,1230,0.1,39.39444444,-122.9425
FULTON,2005,2453585.5,1658,2453585.5,2030,1.5,35.73111111,-118.655
MACE,2005,2453589.5,1455,2453591.5,1800,191,35.39055556,-118.3855556
HOOPER,2005,2453596.5,2306,2453596.5,2320,0.1,35.58805556,-118.5163889
COOK,2005,2453597.5,1021,2453597.5,1130,0.1,35.71611111,-118.5458333
BASKET,2005,2453597.5,1043,2453597.5,1430,0.1,35.65833333,-118.6494444
CHINA,2005,2453597.5,600,2453597.5,1930,0.1,35.52666667,-118.6958333
BRECK,2005,2453580.5,1845,2453580.5,2200,72,35.39111111,-118.8133333
RADIO,2005,2453639.5,1800,2453640.5,1500,0.1,35.45472222,-118.605
BROWN,2005,2453640.5,1200,2453640.5,1900,0.25,35.65194444,-118.5719444
DRY,2005,2453640.5,1600,2453640.5,1800,0.5,35.57,-118.3438889
EVERGREEN,2005,2453581.5,1253,2453581.5,1301,0.01,37.815,-119.875
TROUT,2005,2453587.5,1630,2453587.5,1700,0.1,36.20972222,-118.4033333
GAP,2005,2453590.5,300,2453590.5,1500,0.1,36.3625,-118.565
ACKERSON,2005,2453585.5,1344,2453585.5,1545,0.6,37.82638889,-119.8675
DASHIELL,2005,2453640.5,930,2453640.5,1505,0.5,39.41333333,-123.0383333
LANDING,2005,2453634.5,1500,2453634.5,1700,0.5,36.19833333,-118.7241667
CAMP,2005,2453647.5,830,2453647.5,1700,0.25,36.20583333,-118.6588889
DIAMOND,2005,2453616.5,1248,2453616.5,1406,0.01,37.86027778,-119.8702778
WHEEL,2005,2453622.5,837,2453622.5,1130,0.5,37.83611111,-119.9930556
TROUT,2005,2453640.5,1230,2453640.5,1900,0.25,39.53805556,-122.885
ROCKY,2005,2453628.5,1715,2453628.5,2200,30,40.33416667,-121.6175
COUGAR,2005,2453587.5,1730,2453607.5,1800,104,41.72277778,-120.6855556
BSFMU5,2005,2453587.5,1910,2453593.5,1230,0.1,41.69694444,-120.7366667
DOG,2005,2453582.5,936,2453582.5,950,0.1,41.90666667,-123.8552778
DRY,2005,2453582.5,1049,2453582.5,1101,0.1,41.74305556,-123.8775
GRIFFIN 3,2005,2453587.5,1159,2453587.5,1230,0.1,41.86222222,-123.8708333
SAND,2005,2453589.5,1130,2453589.5,1145,0.1,41.74416667,-123.98
REDWOOD,2005,2453589.5,1215,2453589.5,1230,0.1,41.70055556,-123.9308333
JONES,2005,2453590.5,1024,2453590.5,1630,0.2,41.70638889,-123.8752778
SANHEDRIN,2005,2453573.5,1400,2453573.5,1430,0.01,39.64972222,-122.7330556
CONVERSE,2005,2453630.5,1250,2453631.5,1200,87,37.77888889,-120.1555556
LYONS,2005,2453634.5,630,2453634.5,1800,0.2,38.11722222,-120.1516667
TUBES,2005,2453640.5,914,2453641.5,1800,0.2,38.10194444,-120.1683333
GRIFFON 4,2005,2453592.5,1430,2453592.5,1445,0.1,41.86111111,-123.8708333
GRIFFON 5,2005,2453596.5,935,2453596.5,950,0.1,41.86194444,-123.8722222
CAMPERSHELL,2005,2453640.5,1000,2453640.5,1730,0.1,38.11722222,-120.1844444
GRANT,2005,2453641.5,1200,2453641.5,1900,0.1,38.09861111,-120.2916667
BOWMAN,2005,2453625.5,1000,2453625.5,1130,0.1,39.61972222,-122.7013889
PLASKETT,2005,2453631.5,700,2453631.5,1030,0.1,39.72583333,-122.8663889
MRYTLE 2,2005,2453596.5,1135,2453596.5,1145,0.1,41.80416667,-124.0597222
HAYDEN,2005,2453598.5,1250,2453598.5,1315,0.1,41.71305556,-123.9002778
KIRKWOOD,2005,2453565.5,2205,2453565.5,2359,0.1,38.70027778,-120.0680556
HAZEL,2005,2453625.5,1130,2453625.5,1300,0.1,38.7625,-120.4913889
SILVER,2005,2453615.5,730,2453615.5,810,0.1,38.765,-120.5269444
BARNEY,2005,2453617.5,1515,2453617.5,1841,0.25,38.56,-120.52
BLOOMER,2005,2453603.5,1210,2453603.5,1305,0.1,41.30722222,-123.3744444
FOX,2005,2453603.5,1315,2453603.5,1325,0.1,41.70111111,-123.8958333
BRANNAN,2005,2453611.5,1406,2453611.5,2000,0.75,40.95388889,-123.6594444
ALLI,2005,2453552.5,1820,2453552.5,1828,0.1,40.8775,-123.5241667
SCOUT,2005,2453613.5,520,2453613.5,630,0.5,40.31611111,-123.3852778
M-1,2005,2453639.5,2050,2453639.5,2130,0.1,39.38472222,-122.9838889
SHELLY 2,2005,2453614.5,1339,2453614.5,1345,0.1,41.88444444,-123.8536111
LOGAN,2005,2453639.5,2310,2453639.5,2345,0.1,39.38583333,-122.9833333
PLANTATION,2005,2453640.5,845,2453640.5,1500,0.5,39.34666667,-122.9716667
MRYTLE 3,2005,2453616.5,2300,2453616.5,2359,0.1,41.80416667,-124.0586111
SALMON,2005,2453623.5,56,2453623.5,225,0.1,41.37694444,-123.4877778
BRANHAMS,2005,2453627.5,2030,2453627.5,2238,0.1,40.4825,-123.5791667
PINE2,2005,2453640.5,1530,2453640.5,1840,0.1,39.39555556,-123.0113889
BOARDMAN,2005,2453640.5,1045,2453640.5,1520,0.1,39.4875,-122.9288889
SODA,2005,2453639.5,1930,2453639.5,2320,0.25,39.415,-122.9713889
GO,2005,2453630.5,1930,2453630.5,2102,0.1,41.33527778,-123.5547222
SUZY,2005,2453633.5,521,2453633.5,1041,0.1,40.87888889,-123.5372222
FALLS,2005,2453633.5,639,2453633.5,832,0.2,40.85416667,-123.4863889
THATCHER,2005,2453649.5,830,2453649.5,1700,0.3,39.65777778,-123.0169444
BLANDS,2005,2453663.5,1415,2453663.5,2000,4,39.98083333,-123.1041667
STATION,2005,2453618.5,2000,2453618.5,2020,0.1,34.16611111,-117.7683333
MEADOW,2005,2453597.5,1700,2453597.5,2030,0.1,40.04194444,-120.2275
WATTS,2005,2453638.5,830,2453638.5,1100,0.1,40.25305556,-123.4847222
CABIN,2005,2453629.5,512,2453629.5,1600,0.1,34.54472222,-119.8144444
CAMINO 4,2005,2453636.5,830,2453636.5,832,0.1,39.70472222,-120.4572222
FLORES,2005,2453635.5,1557,2453635.5,1740,0.1,34.48472222,-119.6794444
MIDDLE,2005,2453633.5,1702,2453634.5,1930,0.1,34.78416667,-119.1233333
SCHMIDELL,2005,2453599.5,1230,2453615.5,1800,0.1,38.935,-120.2111111
ALOHA,2005,2453597.5,1759,2453614.5,1800,0.1,38.85166667,-120.1197222
HAYPRESS,2005,2453603.5,1610,2453614.5,1800,0.25,38.85361111,-120.1116667
MORRISON,2005,2453668.5,1505,2453668.5,1620,0.1,38.69472222,-119.7933333
BIG HORN,2005,2453620.5,1130,2453620.5,1626,0.1,37.79222222,-118.9777778
CREEK,2005,2453428.5,1430,2453428.5,1500,0.1,41.83,-123.385
CAL TRAN,2005,2453445.5,1558,2453445.5,1705,0.1,41.67916667,-122.075
BLUE,2005,2453482.5,1400,2453482.5,1435,0.01,41.78722222,-123.0466667
JEROME,2005,2453516.5,2100,2453516.5,2359,0.2,41.7025,-121.9894444
WALKER,2005,2453518.5,331,2453518.5,530,0.1,41.82333333,-122.9772222
BUTTERCUP,2005,2453518.5,930,2453518.5,1200,0.1,41.88305556,-122.9030556
SUNSHINE,2005,2453518.5,800,2453518.5,1200,0.1,41.90416667,-122.8905556
BULL,2005,2453518.5,1200,2453519.5,1205,0.5,41.24194444,-122.1833333
WILLOW,2005,2453518.5,1545,2453519.5,1730,0.3,41.8,-122.2677778
SOMES,2005,2453616.5,830,2453616.5,1400,0.4,41.39444444,-123.4897222
DEBRIS,2005,2453637.5,1900,2453637.5,1921,0.1,41.37444444,-123.4547222
BURN,2005,2453665.5,1155,2453665.5,1353,0.1,41.6825,-123.9
RIDGES,2005,2453633.5,600,2453633.5,1100,0.2,34.34611111,-117.8980556
BASIN,2005,2453596.5,1440,2453596.5,1610,0.1,37.98472222,-120.1844444
DEADFISH,2005,2453589.5,1415,2453589.5,1430,0.1,38.11444444,-120.1583333
ABANDON,2005,2453582.5,1500,2453582.5,1530,0.01,38.09861111,-120.0227778
LOG,2005,2453613.5,1913,2453613.5,2000,0.01,38.06111111,-120.1736111
MUDD,2005,2453636.5,1439,2453636.5,2100,32,37.37861111,-118.6044444
ELIZABETH,2005,2453614.5,1141,2453614.5,1250,0.1,38.05694444,-120.2444444
PARTY,2005,2453637.5,1130,2453637.5,1215,0.01,38.05444444,-120.2425
COYOTE,2005,2453622.5,930,2453622.5,1710,0.25,41.04,-120.7827778
ROAD,2005,2453640.5,738,2453641.5,900,0.1,38.15944444,-120.2069444
WILLOW,2005,2453620.5,1505,2453620.5,1602,0.25,41.9225,-120.3177778
TIMBER,2005,2453629.5,1352,2453629.5,1615,0.1,41.62333333,-121.2244444
LONGBELL,2005,2453629.5,1615,2453629.5,1813,0.2,41.46694444,-121.4008333
MAGEE,2005,2453641.5,1315,2453641.5,1700,45,33.39972222,-117.0363889
TRAIL,2005,2453656.5,1100,2453656.5,1115,0.1,33.29972222,-116.8969444
BUG,2005,2453629.5,1340,2453629.5,1644,0.1,41.62111111,-121.2161111
COYOTE 2,2005,2453630.5,1245,2453630.5,1630,0.1,41.18611111,-120.2877778
ECHO,2005,2453644.5,1330,2453644.5,1340,0.1,41.62888889,-121.5152778
MIDDLE,2005,2453640.5,730,2453640.5,1800,0.1,38.19194444,-120.2283333
HONDA,2005,2453375.5,1045,2453375.5,1235,0.1,34.52638889,-118.3866667
ROCK,2005,2453594.5,1641,2453594.5,1711,0.1,38.18972222,-120.3491667
CABIN,2005,2453429.5,1136,2453429.5,1215,0.1,34.56027778,-118.405
CHICKEN SPRINGS,2005,2453591.5,1000,2453591.5,1259,0.1,40.985,-120.7680556
WATERHEATER,2005,2453429.5,1331,2453429.5,1335,0.1,34.56027778,-118.405
TRASH,2005,2453456.5,1130,2453456.5,1210,1,34.25805556,-118.1055556
MYSTERY,2005,2453471.5,2141,2453471.5,2218,0.1,34.46916667,-118.4325
EMMA,2005,2453475.5,1517,2453475.5,1545,0.1,34.50527778,-118.0308333
DIAZ,2005,2453622.5,110,2453623.5,1411,3,41.02888889,-120.7508333
FISHER,2005,2453491.5,1230,2453491.5,1300,0.1,34.59472222,-118.7125
WHITTAKERS,2005,2453634.5,1223,2453635.5,1800,0.1,38.36777778,-120.0058333
ESCONDIDO,2005,2453503.5,1435,2453503.5,1505,0.1,34.5,-118.2583333
SUV,2005,2453505.5,1626,2453505.5,1715,1,34.50194444,-118.2544444
STRIP,2005,2453506.5,1438,2453506.5,1455,0.1,34.475,-118.3041667
HIGHWAY,2005,2453510.5,1055,2453510.5,1130,0.5,34.38666667,-117.5725
MEADOW,2005,2453634.5,1225,2453636.5,1800,0.1,38.38361111,-120.0227778
FREEWAY,2005,2453511.5,1225,2453511.5,1253,2,34.49138889,-118.2833333
496,2005,2453670.5,1615,2453670.5,1730,0.1,41.01444444,-120.8233333
GOLDEN,2005,2453511.5,1316,2453511.5,1345,4,34.39166667,-118.4777778
AGUA,2005,2453511.5,1205,2453511.5,1230,3,34.46388889,-118.3402778
SILVER,2005,2453511.5,1512,2453511.5,1530,0.1,34.43388889,-118.4202778
SENTRA,2005,2453515.5,1206,2453515.5,1225,0.1,34.35833333,-118.5052778
HILLCREST,2005,2453517.5,935,2453517.5,1025,1,34.47416667,-118.6338889
317,2005,2453600.5,354,2453600.5,450,0.1,41.83444444,-121.3077778
FOREST,2005,2453520.5,1358,2453520.5,1430,0.2,34.48583333,-118.1208333
TOYOTA,2005,2453525.5,1022,2453525.5,1055,0.1,34.60555556,-118.7125
COPPER,2005,2453525.5,1237,2453525.5,1320,1.5,34.48055556,-118.5333333
CENTER,2005,2453525.5,1219,2453525.5,1224,1,34.48611111,-118.1569444
NORTH COAST,2005,2453676.5,630,2453676.5,1001,0.1,36.06527778,-121.4855556
BAKER,2005,2453525.5,1559,2453525.5,1625,0.5,34.45416667,-118.4166667
FIELD,2005,2453528.5,1655,2453528.5,1735,0.2,34.46527778,-118.4083333
REHAB,2005,2453534.5,2103,2453534.5,2145,1,34.44805556,-118.2
DESERT,2005,2453535.5,48,2453535.5,200,0.1,34.38472222,-117.6094444
AIRPORT,2005,2453540.5,1324,2453540.5,1345,0.1,34.50444444,-118.3166667
MINI,2005,2453542.5,1442,2453542.5,1445,0.1,34.49222222,-118.1919444
BOX,2005,2453542.5,1618,2453542.5,1800,2,34.54194444,-118.6594444
DULCE,2005,2453542.5,1710,2453542.5,1735,0.1,34.46388889,-118.3305556
SPOT,2005,2453542.5,1923,2453542.5,1940,0.1,34.50805556,-118.6288889
OAK,2005,2453546.5,1335,2453546.5,1930,125,34.47472222,-118.7094444
MUNZ,2005,2453548.5,1338,2453548.5,2130,800,34.68305556,-118.3888889
WISCONSIN,2005,2453550.5,1241,2453550.5,1305,0.1,34.48611111,-118.2138889
VASQUEZ,2005,2453551.5,749,2453551.5,810,0.1,34.4925,-118.2163889
BANIS,2005,2453551.5,1221,2453551.5,1240,0.1,34.49694444,-118.3541667
SIERRA,2005,2453552.5,1226,2453552.5,1236,0.1,34.40555556,-118.4597222
AVALANCHE,2005,2453552.5,2319,2453552.5,2330,0.1,34.51166667,-118.3427778
SMOKEY,2005,2453553.5,555,2453553.5,635,0.25,34.70444444,-118.7941667
HACIENDA,2005,2453554.5,945,2453554.5,948,0.1,34.61388889,-118.2347222
MOONDUST,2005,2453555.5,2155,2453555.5,2205,0.1,34.47861111,-118.5194444
ARRASTRE,2005,2453556.5,1309,2453556.5,1330,0.1,34.44638889,-118.2
CHERRY,2005,2453556.5,1322,2453556.5,1350,0.7,34.62972222,-118.7252778
BEAR,2005,2453557.5,1216,2453557.5,1315,5,34.67777778,-118.7777778
SASTRE,2005,2453557.5,1619,2453557.5,1635,0.1,34.46861111,-118.1369444
DAFFODIL,2005,2453518.5,1211,2453518.5,1705,0.1,41.97638889,-122.8530556
SODA,2005,2453518.5,1200,2453518.5,2000,0.1,41.96194444,-122.8052778
LUPINE,2005,2453518.5,1330,2453519.5,1345,0.1,41.82888889,-122.7269444
LA HONDA,2005,2453519.5,1015,2453519.5,1600,2.5,41.64361111,-121.88
GRIDER,2005,2453524.5,1400,2453525.5,1800,0.25,41.70972222,-123.2188889
CADE,2005,2453532.5,1400,2453532.5,1639,1,41.81416667,-123.3583333
STORE,2005,2453648.5,1240,2453648.5,1427,0.5,40.26944444,-123.3180556
RUTH 2,2005,2453665.5,1328,2453665.5,1800,0.75,40.26972222,-123.3183333
SAWDUST,2005,2453537.5,700,2453537.5,917,0.1,41.83527778,-123.1861111
DOBBYN,2005,2453666.5,1445,2453666.5,1456,0.1,40.27055556,-123.5175
BILL BERRY,2005,2453543.5,1815,2453545.5,1105,1.5,41.74416667,-123.0236111
GODDE,2005,2453557.5,1745,2453557.5,1900,5,34.61305556,-118.2352778
DRY,2005,2453546.5,1115,2453546.5,1245,0.1,41.62527778,-121.9944444
BRAKE,2005,2453561.5,1551,2453561.5,1700,2,34.55638889,-118.6727778
QUAIL,2005,2453561.5,1853,2453561.5,1930,4,34.78333333,-118.6252778
CALL,2005,2453562.5,1123,2453562.5,1140,0.25,34.58083333,-118.7044444
WHITAKER,2005,2453564.5,1131,2453564.5,1140,0.2,34.59055556,-118.7108333
DUSTY,2005,2453564.5,1502,2453564.5,1520,0.1,34.52083333,-118.2530556
VISTA,2005,2453567.5,1830,2453567.5,1925,5,34.66138889,-118.7569444
HARBART,2005,2453569.5,1444,2453569.5,1540,3,34.48916667,-118.2861111
HASLEY,2005,2453571.5,1201,2453571.5,1230,0.1,34.47944444,-118.6883333
DODGE,2005,2453571.5,1231,2453571.5,1245,0.1,34.45,-118.3513889
VALLEY,2005,2453573.5,1307,2453573.5,1325,0.5,34.39361111,-118.4686111
BEAR #2,2005,2453634.5,900,2453634.5,1800,0.1,38.58333333,-120.2116667
DEVIL,2005,2453644.5,1035,2453644.5,1238,0.3,38.94444444,-120.5711111
BLUE,2005,2453546.5,1400,2453547.5,1400,0.1,41.57222222,-121.9802778
GOOSE,2005,2453546.5,900,2453546.5,1310,0.1,41.73055556,-122.1877778
BUTTE,2005,2453551.5,1430,2453552.5,1430,0.2,41.89444444,-122.2297222
PANTHER,2005,2453554.5,1500,2453555.5,1100,1,41.78611111,-122.2536111
IDLEWILD,2005,2453574.5,1620,2453574.5,2200,1,41.33166667,-123.1083333
SOUTH,2005,2453659.5,2030,2453660.5,1030,0.1,33.33416667,-116.9313889
WINGATE,2005,2453579.5,700,2453579.5,1235,0.5,41.73194444,-123.4358333
EDEN,2005,2453579.5,1451,2453579.5,2000,0.5,41.27583333,-122.8733333
JUANITA,2005,2453614.5,900,2453614.5,940,0.1,41.81055556,-122.1277778
LUCKY,2005,2453580.5,1530,2453580.5,2300,0.25,41.94777778,-122.2205556
LINDO,2005,2453653.5,1401,2453653.5,1420,0.1,33.34972222,-117.0122222
A,2005,2453580.5,1945,2453581.5,30,0.25,41.18611111,-123.2497222
WILDCAT,2005,2453580.5,1830,2453581.5,1400,0.1,41.26916667,-122.9008333
BOLIVAR,2005,2453581.5,1800,2453582.5,1800,0.75,41.27888889,-122.8063889
EB,2005,2453581.5,1845,2453582.5,2130,0.2,41.2675,-122.8075
HARDING,2005,2453606.5,1458,2453622.5,1300,2270,39.61222222,-120.3516667
CISCO,2005,2453601.5,28,2453601.5,243,0.5,39.31888889,-120.5519444
POORMAN,2005,2453634.5,1553,2453635.5,1700,2.1,39.35111111,-120.8019444
RAISINET,2005,2453593.5,800,2453593.5,945,0.01,39.39916667,-121.0708333
CHALET,2005,2453644.5,1810,2453644.5,1853,0.1,39.16722222,-120.2336111
COMMISSION,2005,2453624.5,1557,2453625.5,1800,0.1,39.55694444,-120.7772222
EAST,2005,2453563.5,1400,2453563.5,1534,0.1,39.50833333,-120.3097222
SATTLEY,2005,2453588.5,1845,2453588.5,1936,0.1,39.61861111,-120.4230556
DOWNEY,2005,2453621.5,1200,2453621.5,1500,0.1,39.39527778,-120.5958333
POOR,2005,2453616.5,900,2453616.5,1700,0.5,39.385,-120.7505556
BEAR #3,2005,2453634.5,700,2453634.5,1100,0.1,38.54166667,-120.2716667
SOUTH,2005,2453619.5,1600,2453619.5,1700,0.1,39.33472222,-120.5688889
GREEN,2005,2453665.5,2200,2453667.5,1000,2,39.43555556,-120.1188889
BOCA,2005,2453670.5,1442,2453670.5,1545,0.1,39.70527778,-120.1330556
TANGLE,2005,2453652.5,1000,2453652.5,1115,0.1,38.54555556,-120.195
LONG GULCH,2005,2453668.5,920,2453668.5,1130,0.1,37.83944444,-120.1352778
JAWBONE,2005,2453640.5,635,2453640.5,1502,0.1,37.99,-119.9680556
CHIP,2005,2453680.5,1058,2453680.5,1127,0.1,39.96472222,-120.9
WOODS,2005,2453634.5,959,2453634.5,1224,0.1,37.97194444,-119.9372222
MCKINNEY,2005,2453581.5,1745,2453581.5,1900,0.1,41.76166667,-122.8683333
CECIL,2005,2453581.5,1930,2453582.5,900,0.25,41.08694444,-123.1316667
COMPRESSOR,2005,2453581.5,2045,2453582.5,100,0.1,41.25277778,-123.0916667
CORNER,2005,2453634.5,717,2453634.5,1150,0.1,37.71916667,-119.8361111
LONG GULCH,2005,2453582.5,1300,2453582.5,1825,0.1,41.1875,-122.9330556
BLUE JAY,2005,2453591.5,1740,2453592.5,1200,0.25,41.21638889,-122.8663889
ROCK,2005,2453596.5,1330,2453596.5,1930,0.1,41.2525,-122.745
CEDAR,2005,2453596.5,1745,2453597.5,1630,0.1,41.86888889,-123.6191667
ROBISON,2005,2453597.5,1905,2453598.5,1330,1.5,41.73,-121.8141667
ANTELOPE,2005,2453597.5,1930,2453597.5,2230,0.1,41.695,-122.8558333
SAWMILL,2005,2453634.5,1111,2453634.5,1230,0.1,37.84,-119.9275
VASQUEZ1,2005,2453574.5,1016,2453574.5,1200,20,34.47361111,-118.4591667
LARGO,2005,2453578.5,745,2453578.5,810,0.1,34.66444444,-118.7597222
LAGO,2005,2453580.5,1341,2453580.5,1450,2.5,34.63861111,-118.7455556
TABLE,2005,2453588.5,1630,2453588.5,2000,0.1,34.39833333,-117.6922222
RANCH,2005,2453659.5,1020,2453659.5,1300,0.5,35.97388889,-118.5438889
ALIMONY,2005,2453589.5,1447,2453589.5,1530,0.1,34.48027778,-118.0066667
DAWSON,2005,2453589.5,1500,2453590.5,1601,0.25,34.37222222,-117.8052778
SAND,2005,2453670.5,930,2453676.5,1300,0.1,35.88444444,-118.5822222
DEL,2005,2453590.5,1030,2453590.5,1110,2.5,34.6375,-118.7444444
GRAVEL,2005,2453592.5,1805,2453592.5,1808,0.1,34.3625,-118.3902778
NELSON,2005,2453597.5,1349,2453597.5,1500,0.1,34.41583333,-118.2997222
GROVE,2005,2453673.5,1300,2453674.5,2000,0.75,36.21472222,-118.6594444
PRINCESSA,2005,2453600.5,1611,2453600.5,1625,0.1,34.40333333,-118.4513889
PARKER,2005,2453673.5,1425,2453675.5,950,0.25,36.21472222,-118.6205556
SAND,2005,2453603.5,1124,2453603.5,1140,0.1,34.42583333,-118.4088889
CRYSTAL,2005,2453629.5,1510,2453629.5,1755,0.1,41.4925,-121.3425
PYRAMID,2005,2453604.5,1316,2453604.5,1415,1,34.68777778,-118.7855556
BUCK,2005,2453673.5,1500,2453674.5,1635,0.5,35.96083333,-118.6702778
LESINA,2005,2453611.5,936,2453611.5,938,0.1,34.66194444,-118.4005556
PARKING,2005,2453611.5,1858,2453611.5,1926,0.1,34.75722222,-118.7952778
HOLLENBECK,2005,2453630.5,800,2453630.5,1230,0.1,41.48166667,-121.305
RIG,2005,2453612.5,1541,2453612.5,1605,0.1,34.72166667,-118.7977778
BEAVER CREEK,2005,2453682.5,1430,2453682.5,1800,0.1,39.52916667,-120.0044444
LOOP,2005,2453653.5,1140,2453653.5,1142,0.1,33.33305556,-116.9636111
FISHY,2005,2453582.5,1946,2453583.5,1200,0.5,41.89055556,-122.8366667
PRAIRIE,2005,2453598.5,1200,2453599.5,1700,0.25,41.71388889,-121.8241667
ALAMOS,2005,2453617.5,1541,2453617.5,1700,15,34.7025,-118.8019444
STAGING,2005,2453620.5,901,2453620.5,1115,0.1,34.52638889,-118.3833333
TEXAS,2005,2453624.5,854,2453624.5,856,0.1,34.52611111,-118.3861111
JOHNSON,2005,2453641.5,1405,2453641.5,1700,80,34.64444444,-118.3363889
DRILL,2005,2453641.5,1849,2453641.5,2015,0.3,34.50111111,-118.3308333
CROWN,2005,2453645.5,1851,2453645.5,2000,0.1,34.4525,-118.2008333
LOOKOUT,2005,2453606.5,1630,2453606.5,2200,1,41.66,-123.0902778
DOGGETT,2005,2453613.5,1000,2453613.5,1045,0.1,41.86833333,-122.9411111
CARIBOU LAKE,2005,2453616.5,200,2453617.5,300,0.5,41.02166667,-122.98
BIG BLUE,2005,2453617.5,1130,2453617.5,1700,0.25,41.34138889,-122.985
DONOMORE,2005,2453622.5,800,2453622.5,1430,0.1,41.93694444,-122.8219444
TRAPPER,2005,2453622.5,813,2453622.5,1900,0.1,42,-122.8863889
LONG,2005,2453622.5,730,2453623.5,1148,0.1,41.18361111,-122.9402778
CREEK #2,2005,2453635.5,1000,2453635.5,1225,0.1,41.79444444,-123.3686111
VEHICLE,2005,2453627.5,1135,2453627.5,1230,0.1,41.93194444,-123.0305556
WILLIAMS,2005,2453657.5,1520,2453657.5,1701,0.25,41.79277778,-123.3352778
KELSEY,2005,2453633.5,1615,2453633.5,1635,0.5,41.65,-123.1852778
HOUSTON,2005,2453663.5,1600,2453663.5,1725,0.1,41.38444444,-122.6011111
GRIDER 2,2005,2453665.5,1700,2453665.5,1715,0.5,41.65055556,-123.2011111
TROY,2005,2453575.5,1451,2453576.5,1400,0.1,36.07111111,-118.1997222
SMITH,2005,2453590.5,940,2453590.5,1200,0.1,36.11611111,-118.2255556
CAR,2005,2453575.5,1610,2453576.5,1200,0.1,36.11138889,-118.1691667
NORTH,2005,2453575.5,1611,2453638.5,1400,22,36.01805556,-118.405
FINGER,2005,2453575.5,1451,2453581.5,1530,0.1,36.1025,-118.2069444
YUCCA,2005,2453626.5,1455,2453626.5,1530,0.25,32.68555556,-116.5133333
POSEY,2005,2453582.5,1530,2453582.5,1615,0.5,34.63222222,-118.7269444
DAISY,2005,2453637.5,2245,2453638.5,1200,1.2,32.71,-116.6658333
VALYERMO,2005,2453588.5,1730,2453588.5,1855,0.1,34.4625,-117.8597222
LOWRIDGE,2005,2453592.5,1959,2453592.5,2020,0.1,34.47416667,-118.5416667
MONTE,2005,2453641.5,2200,2453642.5,1200,1,32.91638889,-116.8144444
BUCKMAN,2005,2453645.5,1300,2453645.5,1330,0.2,32.68027778,-116.4888889
CAMP,2005,2453647.5,700,2453647.5,830,0.1,32.84666667,-116.5588889
SKYE,2005,2453649.5,2012,2453653.5,1800,230,32.805,-116.6572222
MATTRESS,2005,2453613.5,1506,2453613.5,1516,0.1,34.59833333,-118.7108333
VISTA,2005,2453651.5,910,2453651.5,930,0.1,32.83805556,-116.6661111
FISHERMAN,2005,2453622.5,1140,2453622.5,1155,0.1,34.48194444,-118.03
RIDGE,2005,2453640.5,1531,2453640.5,1545,0.1,34.57861111,-118.6702778
MCVICKER,2005,2453527.5,1205,2453541.5,1300,1,33.60305556,-117.2969444
MCALMOND,2005,2453593.5,1703,2453593.5,2100,3,32.67166667,-116.6441667
SPICE,2005,2453656.5,1510,2453656.5,1900,28.2,32.68138889,-116.7077778
FOOTHILL,2005,2453673.5,215,2453673.5,900,0.2,32.8325,-116.5244444
DIVIDE,2005,2453659.5,1215,2453659.5,1305,1,33.32166667,-116.7177778
GRANDVIEW,2005,2453679.5,1210,2453679.5,1300,0.1,33.01638889,-116.6133333
TRADE,2005,2453688.5,1625,2453688.5,1655,0.1,32.84583333,-116.6163889
ECLIPSE,2005,2453581.5,1430,2453581.5,1500,0.1,33.62583333,-117.4261111
VAN,2005,2453387.5,1315,2453387.5,1531,0.1,34.28805556,-118.1766667
TUJUNGA,2005,2453424.5,2015,2453424.5,2200,1,34.29277778,-118.2311111
SILVERADO,2005,2453440.5,900,2453440.5,1030,0.1,34.2975,-118.2444444
MERCEDES,2005,2453513.5,1736,2453513.5,1810,0.1,34.23861111,-118.3058333
ROSENITA,2005,2453519.5,1315,2453519.5,1330,0.1,34.35,-118.0083333
FLAT,2005,2453547.5,1858,2453547.5,1945,0.1,34.30333333,-118.2597222
SET,2005,2453557.5,215,2453557.5,245,1,34.28444444,-118.2208333
EIGHT,2005,2453475.5,655,2453475.5,720,0.1,32.81361111,-116.5169444
CHARLIE,2005,2453683.5,1600,2453683.5,1830,0.01,39.73916667,-122.8372222
FIGUEROA,2005,2453673.5,905,2453673.5,1100,0.1,34.73416667,-119.9852778
SITE 2,2005,2453591.5,1106,2453591.5,1120,0.1,33.65194444,-117.4108333
SITE 14,2005,2453609.5,1315,2453609.5,1325,0.01,33.6525,-117.4105556
RUSSELL,2005,2453683.5,1630,2453684.5,1400,0.1,34.84555556,-118.9963889
SITE #18,2005,2453618.5,1245,2453618.5,1255,0.01,33.57555556,-117.2913889
MAITRI,2005,2453620.5,1429,2453620.5,1450,0.1,33.75638889,-117.4883333
DOVE,2005,2453639.5,1448,2453639.5,1600,0.25,33.64694444,-117.5663889
NELSON,2005,2453641.5,2100,2453641.5,2215,3,33.63555556,-117.3488889
GMC,2005,2453401.5,1025,2453401.5,1045,0.1,34.66777778,-118.7633333
SPUNKY,2005,2453483.5,510,2453483.5,700,0.1,34.59027778,-118.3694444
CHINA,2005,2453618.5,1213,2453618.5,1252,0.01,38.20222222,-120.0797222
OSITO,2005,2453503.5,1419,2453503.5,1540,0.3,34.62472222,-118.7194444
ROVER,2005,2453511.5,1303,2453511.5,1400,1,34.50111111,-118.2311111
FOURTEEN,2005,2453540.5,1801,2453540.5,1900,2,34.50388889,-118.2402778
THREEPOINTS,2005,2453543.5,1345,2453543.5,1530,5,34.7525,-118.6016667
TEMPLIN,2005,2453559.5,1130,2453559.5,1210,5,34.58888889,-118.7125
ANTHONY,2005,2453570.5,1518,2453570.5,1525,0.1,34.52222222,-118.2875
MT EMMA,2005,2453574.5,1715,2453574.5,1800,0.1,34.47611111,-118.0736111
COOPER,2005,2453574.5,1619,2453575.5,1700,0.25,34.37527778,-117.9436111
BUSH,2005,2453588.5,1903,2453588.5,2015,0.1,34.5125,-118.0194444
BUMMER,2005,2453631.5,1659,2453632.5,1400,0.25,38.34166667,-120.0002778
PALLETT,2005,2453589.5,1500,2453589.5,1546,0.1,34.44944444,-117.8811111
OFFRAMP,2005,2453601.5,1126,2453601.5,1150,0.25,34.56,-118.6916667
CLUB,2005,2453610.5,1138,2453610.5,1152,0.1,34.66444444,-118.4083333
SOLEDAD,2005,2453618.5,1511,2453618.5,1545,0.2,34.42416667,-118.4238889
NARANJO,2005,2453618.5,2329,2453619.5,1144,0.1,34.61083333,-118.3952778
MANURE,2005,2453621.5,1110,2453621.5,1130,0.1,34.47777778,-118.3616667
MEDIAN,2005,2453629.5,1356,2453629.5,1450,0.25,34.72361111,-118.7930556
POST,2005,2453630.5,1400,2453630.5,1530,15,34.77361111,-118.7761111
MARKET,2005,2453641.5,1500,2453641.5,1505,0.1,34.61805556,-118.2888889
GRAYS,2005,2453605.5,819,2453605.5,1540,0.25,40.84388889,-123.4863889
GRIFFIN6,2005,2453609.5,910,2453609.5,925,0.1,41.86194444,-123.8722222
BLACK ROCK 2,2005,2453668.5,657,2453669.5,1300,0.1,36.89611111,-119.0505556
BRAKECHECK,2005,2453608.5,1117,2453608.5,1145,0.1,34.58333333,-118.6958333
MOTORCYCLE,2005,2453643.5,1210,2453643.5,1330,0.1,34.43055556,-117.825
ENTRANCE,2005,2453654.5,1121,2453654.5,1200,0.25,34.50416667,-118.3222222
MANKER,2005,2453692.5,1725,2453692.5,1750,0.1,34.27,-117.625
WOOLEY,2005,2453634.5,1745,2453634.5,1900,3225,41.49972222,-123.2763889
TOMBSTONE,2005,2453669.5,909,2453669.5,1000,0.2,36.92194444,-118.8375
EAGLE,2005,2453633.5,818,2453633.5,1300,0.1,34.35138889,-117.8847222
WINSTON,2005,2453633.5,1033,2453634.5,1300,0.1,34.35138889,-117.9125
BUCKHORN,2005,2453660.5,614,2453661.5,2300,0.1,34.34583333,-117.9069444
PINON,2005,2453660.5,745,2453661.5,1600,0.1,34.38833333,-117.6680556
RADAR,2005,2453664.5,1252,2453664.5,1330,1.5,34.62361111,-118.7180556
DONEY 2,2005,2453491.5,2252,2453492.5,115,0.1,40.88361111,-122.3838889
CASWELL,2005,2453676.5,1040,2453676.5,1200,0.1,34.69583333,-118.7791667
LIEBRE,2005,2453685.5,1619,2453685.5,1645,0.1,34.74722222,-118.6986111
BUTTER,2005,2453496.5,820,2453496.5,1400,0.1,40.61833333,-123.4186111
STRUCTURE,2005,2453658.5,1732,2453658.5,1900,0.1,34.67361111,-118.4197222
DEVIL,2005,2453688.5,917,2453688.5,940,0.1,34.425,-117.8861111
SHADOW,2005,2453693.5,1705,2453693.5,1720,0.1,34.44888889,-118.3555556
RAG,2005,2453693.5,1846,2453693.5,1905,0.1,34.44722222,-118.3583333
WOODCHUCK,2005,2453668.5,1122,2453668.5,1149,0.1,37.01055556,-118.9333333
ST. JOHN,2005,2453503.5,1100,2453503.5,1430,0.1,40.61861111,-123.4177778
LOPER,2005,2453668.5,1120,2453668.5,1148,0.1,37.03861111,-118.9269444
NORTHBOUND,2005,2453598.5,1330,2453598.5,1355,0.1,34.56,-118.6775
PARADISE,2005,2453608.5,1722,2453608.5,1845,8,34.57416667,-118.6941667
PELLETREAU,2005,2453516.5,630,2453516.5,1300,0.1,40.61722222,-123.4669444
PILGRIM,2005,2453517.5,1210,2453517.5,1330,0.3,41.35222222,-121.9508333
VALLEY,2005,2453633.5,1355,2453633.5,1700,0.1,39.2575,-120.6527778
FORK,2005,2453635.5,800,2453638.5,1650,30,39.20277778,-120.6680556
FRENCH,2005,2453548.5,1400,2453549.5,1300,0.1,39.10138889,-120.4266667
MEARS,2005,2453662.5,930,2453662.5,1900,0.1,39.2675,-120.5833333
ROBIN,2005,2453670.5,1120,2453670.5,1154,0.1,40.91888889,-123.6191667
CORNISH 2,2005,2453664.5,1000,2453664.5,1500,0.1,39.48388889,-120.785
WEBBER,2005,2453627.5,1401,2453627.5,1559,0.25,39.44027778,-120.3980556
ROCK,2005,2453639.5,1151,2453639.5,1324,0.1,39.57388889,-120.1530556
RANGE,2005,2453667.5,2056,2453668.5,1356,0.1,39.56277778,-120.3277778
TAMARACK 2,2005,2453668.5,830,2453668.5,1400,0.1,37.14722222,-119.2258333
STONE,2005,2453595.5,1100,2453595.5,1253,0.1,41.36055556,-120.9966667
TALMONT,2005,2453634.5,400,2453634.5,1500,0.1,39.14111111,-120.1697222
KAISER WEST,2005,2453668.5,800,2453668.5,1300,0.3,37.36194444,-119.2180556
LODGE,2005,2453568.5,1000,2453568.5,1045,0.1,32.86611111,-116.4236111
LOG,2005,2453651.5,1015,2453651.5,1100,0.1,41.23416667,-123.6747222
BRIDGE,2005,2453654.5,940,2453654.5,1000,0.1,41.29888889,-123.5411111
WARM SPRING,2005,2453548.5,1626,2453548.5,2019,0.1,41.93166667,-120.935
ISHI,2005,2453657.5,1645,2453657.5,1959,0.5,41.32861111,-123.5280556
REDCAP,2005,2453660.5,1400,2453660.5,1443,0.25,41.2975,-123.5402778
LUCKY,2005,2453573.5,1630,2453573.5,1845,5,32.91861111,-116.5041667
EDDIE,2005,2453648.5,1630,2453648.5,1700,0.1,32.82388889,-116.6216667
KAISER,2005,2453634.5,830,2453634.5,1030,0.1,37.35194444,-119.2613889
LIGHTING,2005,2453587.5,1425,2453587.5,1630,0.1,32.76194444,-116.5016667
CREST,2005,2453631.5,1130,2453631.5,1215,0.1,37.24944444,-119.1827778
BUCKEYE 2,2005,2453609.5,1045,2453609.5,1115,0.1,37.05333333,-119.3916667
FLAT,2005,2453612.5,1851,2453612.5,1925,0.1,35.82805556,-118.4605556
WIRE,2005,2453701.5,1245,2453701.5,1600,0.1,34.17444444,-117.7755556
GOLDEN,2005,2453616.5,1758,2453616.5,1900,0.1,35.8575,-118.45
CRAG,2005,2453575.5,1451,2453658.5,1600,1185,35.09333333,-118.2055556
RIVERVIEW,2005,2453517.5,2040,2453517.5,2055,0.1,40.9175,-122.4005556
HILLS,2005,2453528.5,1400,2453528.5,1900,0.5,40.41777778,-123.2172222
RIVER,2005,2453533.5,220,2453533.5,330,0.3,41.13416667,-122.3161111
SUNDAY,2005,2453534.5,1546,2453534.5,1700,0.1,40.36666667,-122.9191667
O'BRIEN  1,2005,2453536.5,1425,2453536.5,1725,0.1,40.80222222,-122.3175
KIVA 2,2005,2453552.5,2300,2453553.5,1,0.1,38.94,-120.0466667
KIVA 3,2005,2453552.5,2300,2453553.5,55,0.1,38.94,-120.0466667
EMERALD,2005,2453554.5,1530,2453554.5,1620,0.1,38.94,-120.0466667
RUBICON,2005,2453599.5,1500,2453599.5,2103,0.1,39.01333333,-120.1383333
PACKERS,2005,2453536.5,1433,2453536.5,1800,0.5,40.80166667,-122.3169444
EIGHT,2005,2453620.5,1245,2453620.5,1310,0.1,38.945,-120.0991667
WEST,2005,2453627.5,1600,2453627.5,1645,0.1,38.81166667,-120.0266667
BILTMORE,2005,2453657.5,245,2453657.5,330,0.1,38.21666667,-120.1266667
JUNCTION,2005,2453670.5,757,2453670.5,1800,0.2,36.84166667,-118.9125
BRIDGE,2005,2453598.5,1205,2453598.5,1225,0.1,32.82138889,-116.5502778
NINE,2005,2453544.5,900,2453544.5,1100,0.1,40.58555556,-123.2691667
ROAD,2005,2453689.5,1745,2453689.5,1900,4,33.33305556,-116.9663889
PORCUPINE,2005,2453518.5,1630,2453519.5,1300,0.1,41.63305556,-120.7519444
RAILROAD,2005,2453546.5,845,2453546.5,1001,0.1,40.81305556,-122.3247222
CHOKE,2005,2453668.5,900,2453705.5,1500,0.2,36.83666667,-118.7066667
REDWOOD,2005,2453668.5,930,2453669.5,1315,0.1,36.71361111,-118.9719444
RESERVOIR F,2005,2453519.5,1100,2453519.5,1400,0.1,41.58611111,-120.8752778
STARLIGHT,2005,2453668.5,915,2453668.5,1325,0.1,36.70472222,-118.8311111
COW,2005,2453546.5,1620,2453546.5,1644,0.1,40.36166667,-122.9175
MANZANITA,2005,2453529.5,1743,2453529.5,1900,0.5,32.66777778,-116.6991667
ZOT,2005,2453546.5,1512,2453546.5,1930,0.1,41.48277778,-122.2083333
DETENTION,2005,2453600.5,1300,2453600.5,1320,0.1,32.82944444,-116.6402778
TAN,2005,2453546.5,1915,2453547.5,1015,0.1,40.83333333,-122.8191667
FORK,2005,2453546.5,1512,2453546.5,1600,0.1,41.13388889,-122.4133333
TOWN,2005,2453542.5,1939,2453542.5,2130,0.1,32.85388889,-116.6211111
BUCK,2005,2453548.5,1930,2453548.5,2100,0.5,40.86694444,-122.2666667
HOTLUM 1,2005,2453550.5,1000,2453550.5,1800,0.1,41.30666667,-122.0677778
PASS,2005,2453590.5,1000,2453592.5,1130,0.25,36.11888889,-118.0522222
HOTLUM 2,2005,2453550.5,1000,2453550.5,1800,0.1,41.30666667,-122.0661111
HOTLUM 3,2005,2453550.5,1000,2453550.5,1800,0.1,41.30666667,-122.0638889
FENDER,2005,2453552.5,1415,2453552.5,2030,5,40.88333333,-122.0355556
ANDERSON,2005,2453640.5,1013,2453672.5,1800,40,37.08444444,-118.9372222
BALCH,2005,2453678.5,1435,2453679.5,1832,5.8,36.9675,-119.1538889
TEMPO,2005,2453531.5,1759,2453531.5,1810,0.1,32.83527778,-116.7258333
PORTAL,2005,2453572.5,1800,2453574.5,1800,60,36.60527778,-118.2191667
NELSON,2005,2453686.5,1229,2453687.5,1325,0.1,37.0775,-119.0477778
STUMP,2005,2453543.5,1115,2453543.5,1700,0.1,36.45777778,-118.1694444
BEAR,2005,2453586.5,841,2453614.5,1745,0.1,36.33722222,-118.3022222
SOUTH,2005,2453589.5,1537,2453614.5,1745,0.1,36.43111111,-118.2333333
MUIR,2005,2453590.5,1153,2453614.5,1745,0.1,36.5,-118.2075
TRAIL,2005,2453591.5,1541,2453614.5,1745,0.1,36.43166667,-118.1897222
HOOK,2005,2453702.5,810,2453702.5,930,0.5,32.70638889,-116.4911111
BALL,2005,2453580.5,900,2453581.5,1500,0.1,36.10638889,-118.0966667
NISSAN,2005,2453512.5,1726,2453512.5,1740,0.1,34.48888889,-118.1597222
YUCCA,2005,2453529.5,1807,2453529.5,1930,8,34.53194444,-118.6430556
RED,2005,2453553.5,1817,2453553.5,1825,0.25,34.49694444,-118.2191667
VOLCANO,2005,2453677.5,1255,2453706.5,1200,3,36.36583333,-118.3852778
ELIZABETH,2005,2453565.5,1325,2453565.5,1430,0.1,34.65916667,-118.3930556
ANGELES,2005,2453565.5,1737,2453565.5,2030,530,34.50194444,-118.1136111
MAXIMA,2005,2453573.5,1215,2453573.5,1230,0.1,34.45,-118.3527778
JUBILEE,2005,2453573.5,1416,2453573.5,1421,2,34.41,-117.6694444
CAMRY,2005,2453574.5,1730,2453574.5,1750,0.1,34.56361111,-118.6686111
BOB,2005,2453589.5,1545,2453589.5,1730,0.1,34.43333333,-117.8133333
SANTIAGO,2005,2453589.5,1552,2453589.5,2130,0.5,34.44166667,-118.0627778
WEST,2005,2453554.5,1400,2453554.5,1830,0.1,40.53416667,-123.2691667
16,2005,2453558.5,1330,2453558.5,1630,0.3,40.66694444,-123.1519444
KING,2005,2453559.5,1300,2453559.5,1310,0.1,40.50083333,-123.1347222
ESPERANZA,2005,2453563.5,630,2453563.5,1800,0.3,41.26777778,-122.0358333
CHINA CAMP,2005,2453575.5,1100,2453576.5,1530,0.3,37.37333333,-119.0508333
MOUNTAIN,2005,2453694.5,1000,2453695.5,1545,40,38.58777778,-120.4011111
DESERT,2005,2453568.5,1100,2453568.5,1200,0.5,37.06083333,-119.4483333
MEADOW,2005,2453556.5,50,2453556.5,155,0.3,37.08666667,-119.4405556
BANK,2005,2453540.5,1550,2453540.5,1700,0.1,37.07055556,-119.3483333
TUB,2005,2453572.5,1550,2453583.5,1200,0.1,37.41972222,-118.9786111
DEADWOOD,2005,2453691.5,1605,2453691.5,1741,0.1,39.16333333,-120.6311111
RATTLE,2005,2453572.5,1600,2453576.5,1800,18,37.38,-119.105
WARM,2005,2453574.5,1225,2453580.5,1800,39,37.36027778,-119.0716667
MASON,2005,2453588.5,1400,2453588.5,1800,0.2,37.37527778,-119.2452778
COUNTY LINE,2005,2453588.5,1245,2453591.5,1400,0.2,37.47527778,-119.1813889
PORTAL,2005,2453668.5,1100,2453668.5,1800,0.1,37.33722222,-119.0775
ALDER,2005,2453697.5,1330,2453697.5,1400,0.1,38.67611111,-120.3091667
CAMP,2005,2453668.5,1100,2453699.5,1200,0.1,37.26527778,-119.2438889
BUCKEYE,2005,2453587.5,1140,2453587.5,1200,0.1,37.05333333,-119.3947222
JUNIPER,2005,2453589.5,1730,2453589.5,1940,0.1,34.43888889,-117.7586111
LOST,2005,2453598.5,1526,2453598.5,1600,0.1,34.59972222,-118.2833333
LAKE,2005,2453604.5,1151,2453604.5,1230,0.5,34.63555556,-118.7513889
BATTERY,2005,2453604.5,1615,2453604.5,1625,0.1,34.65694444,-118.7555556
DAVENPORT,2005,2453607.5,1330,2453607.5,1405,0.3,34.48194444,-118.3855556
CIVIC,2005,2453612.5,1020,2453612.5,1055,0.1,34.71416667,-118.7986111
SPRINGS,2005,2453614.5,1451,2453614.5,1600,8,34.47527778,-118.3013889
KENTUCKY,2005,2453616.5,1358,2453616.5,1405,0.4,34.44277778,-118.0652778
NINETY-NINE,2005,2453642.5,918,2453642.5,1115,8,34.63527778,-118.7419444
FRAZIER,2005,2453643.5,828,2453643.5,950,4,34.55916667,-118.6766667
M1,2005,2453435.5,1700,2453435.5,1716,0.1,39.26,-122.9475
MIDDLE,2005,2453505.5,1246,2453505.5,1258,0.1,39.22083333,-122.9386111
GEARY,2005,2453617.5,1929,2453621.5,1600,175,41.37944444,-123.4625
FULLER,2005,2453553.5,1335,2453553.5,1435,0.1,39.44055556,-122.9725
LAKEVIEW,2005,2453696.5,1245,2453696.5,1800,3,39.12611111,-122.8402778
BURRILL,2005,2453643.5,1122,2453643.5,1500,8,41.30083333,-123.7363889
BURRILL 2,2005,2453643.5,1157,2453643.5,1430,1,41.30277778,-123.7377778
BURRILL 3,2005,2453643.5,1158,2453643.5,1500,1,41.30777778,-123.7380556
PILE,2005,2453695.5,715,2453695.5,1730,11,40.26166667,-123.3783333
CABLE,2005,2453593.5,619,2453593.5,1200,0.24,38.7725,-120.6411111
PAINTED,2005,2453709.5,1100,,,0.1,39.40916667,-120.5416667
ZINGIRA,2005,2453676.5,1000,2453676.5,1030,0.1,39.48361111,-120.2066667
EDISON,2005,2453527.5,1235,2453527.5,1245,0.1,33.63333333,-117.3819444
CARISO,2005,2453542.5,1703,2453542.5,1830,8,33.64555556,-117.3638889
PUSHASIDE,2005,2453555.5,2045,2453555.5,2145,0.25,33.65527778,-117.4527778
TRANSFER,2005,2453693.5,1935,2453693.5,1945,0.1,33.6525,-117.4088889
JUAN,2005,2453672.5,1235,2453672.5,1245,0.1,33.60694444,-117.4327778
MAJORCA,2005,2453612.5,1220,2453612.5,1230,0.1,33.57527778,-117.2905556
CAPPS,2005,2453624.5,700,2453624.5,1800,2,38.65166667,-120.49
BODY,2005,2453704.5,1253,2453704.5,1259,0.1,34.16305556,-117.6816667
OMO,2005,2453442.5,1350,2453442.5,1513,0.1,38.53194444,-120.4416667
FRANCIS,2005,2453691.5,1400,2453692.5,1600,1.6,38.99333333,-120.3694444
DEW,2005,2453619.5,1800,2453619.5,1900,0.1,38.5,-120.5
SOPIAGO,2005,2453641.5,1100,2453641.5,1230,0.1,38.55833333,-120.5366667
MUD,2005,2453689.5,1540,2453689.5,1700,0.1,38.38194444,-120.3458333
BLACK,2005,2453687.5,957,2453687.5,1100,0.1,38.9025,-120.5772222
CABIN,2005,2453569.5,800,2453569.5,1039,0.1,40.38361111,-123.2847222
DUMPSTER,2005,2453703.5,1645,2453703.5,1710,0.1,32.8875,-116.4475
PLACERITA,2005,2453648.5,930,2453648.5,1000,0.25,34.37916667,-118.4236111
BALL,2005,2453574.5,1538,2453574.5,1617,0.1,40.985,-122.6977778
ESTATES,2005,2453574.5,1800,2453574.5,2100,0.1,41.26666667,-122.0183333
SUBURBAN,2005,2453390.5,925,2453390.5,940,0.8,34.31611111,-118.3841667
RANCH,2005,2453448.5,2100,2453448.5,2205,0.1,34.30694444,-118.2875
LUMBER,2005,2453477.5,2110,2453477.5,2125,1,34.30083333,-118.2513889
TURNOUT,2005,2453503.5,1436,2453503.5,1448,1,34.25777778,-118.1936111
LATUNA,2005,2453522.5,1547,2453522.5,1655,5,34.23027778,-118.2633333
HYAMPOM,2005,2453576.5,1731,2453576.5,2200,2,40.62694444,-123.4547222
STONEHURST,2005,2453555.5,1300,2453555.5,1400,5,34.27027778,-118.3916667
YARNELL,2005,2453555.5,2225,2453555.5,2330,25,34.31611111,-118.4019444
GIBSON,2005,2453578.5,1244,2453579.5,1730,8,41.05138889,-122.3811111
BARRY,2005,2453712.5,1350,2453713.5,1130,0.1,40.22555556,-123.2313889
CAMP,2005,2453579.5,2030,2453579.5,2130,0.1,34.34527778,-117.9983333
MUSTANG,2005,2453582.5,45,2453582.5,100,0.1,34.30194444,-118.2575
PRESERVE,2005,2453580.5,1300,2453580.5,1745,1,41.10166667,-122.0858333
WHISKEY,2005,2453580.5,1800,2453581.5,1200,0.3,40.98388889,-123.1513889
EVERETT,2005,2453581.5,30,2453581.5,1230,0.1,40.33444444,-122.2513889
MONUMENT,2005,2453581.5,1700,2453581.5,2000,0.1,40.71888889,-123.3025
DIVIDE,2005,2453581.5,1700,2453581.5,2100,0.3,40.68416667,-123.2358333
TRINITY,2005,2453582.5,1718,2453582.5,1845,0.1,40.97833333,-122.7019444
VINEYARD,2005,2453583.5,1425,2453583.5,1844,6,40.60194444,-123.4513889
HALL,2005,2453586.5,1405,2453586.5,1930,4,40.61694444,-123.4358333
EIGHT,2005,2453588.5,1200,2453588.5,1230,0.1,40.51805556,-123.2666667
TULE,2005,2453589.5,1300,2453589.5,1330,0.1,40.50194444,-123.2691667
DRINKWATER,2005,2453593.5,1450,2453593.5,2343,0.7,40.55,-123.2841667
SAND,2005,2453600.5,1130,2453600.5,1300,0.1,41.35166667,-122.2336111
CASTLE,2005,2453600.5,1525,2453600.5,2000,0.1,41.16444444,-122.3672222
BECKWOURTH,2005,2453721.5,1000,2453721.5,1300,0.2,39.86166667,-120.3830556
NORTH GATE,2005,2453600.5,1630,2453600.5,1945,0.3,41.45055556,-122.135
POST,2005,2453601.5,1314,2453601.5,1600,0.2,40.41777778,-123.2341667
NEY,2005,2453606.5,1235,2453606.5,1315,0.1,41.26722222,-122.3336111
STAR,2005,2453606.5,1800,2453606.5,1930,0.1,41.33333333,-122.2644444
GARRETT,2005,2453613.5,1613,2453613.5,2030,0.4,40.63472222,-123.4680556
BILLY,2005,2453614.5,530,2453614.5,830,0.1,41.08527778,-122.73
PORCUPINE,2005,2453612.5,1230,2453612.5,1300,0.1,41.26805556,-122.5011111
TIE,2005,2453618.5,1312,2453618.5,1330,0.1,40.88388889,-122.3836111
TANNERY,2005,2453618.5,1400,2453618.5,1745,0.1,40.83361111,-122.8519444
TOLLHOUSE,2005,2453621.5,300,2453623.5,900,12,40.91805556,-122.5183333
BARKER,2005,2453622.5,625,2453622.5,1030,0.3,40.60027778,-123.1016667
DUTCHMAN,2005,2453623.5,1030,2453623.5,1500,0.3,41.06805556,-121.985
TAMARACK,2005,2453623.5,1030,2453624.5,945,0.1,41.08388889,-122.0841667
SHOEINHORSE,2005,2453623.5,900,2453623.5,1500,0.3,41.1,-122.0508333
MILLER,2005,2453624.5,630,2453624.5,1700,0.5,40.95138889,-123.3513889
BIERCE,2005,2453624.5,1039,2453624.5,1830,0.3,40.22833333,-123.1333333
FALLS,2005,2453625.5,1045,2453625.5,1330,0.3,41.23444444,-123.0008333
MORRIS,2005,2453626.5,1000,2453626.5,1300,0.1,41.06888889,-122.8347222
ASH,2005,2453628.5,1405,2453628.5,1533,0.1,41.30222222,-121.9505556
GAP,2005,2453629.5,1820,2453629.5,2200,0.1,41.06666667,-122.0011111
BUCKEYE,2005,2453630.5,945,2453630.5,1110,0.1,41.03444444,-122.7
STUD,2005,2453630.5,1729,2453630.5,2002,0.1,41.49666667,-123.5916667
MOUNTAIN,2005,2453634.5,1455,2453634.5,1615,0.1,41.33444444,-122.25
POTEM,2005,2453641.5,1252,2453642.5,2005,6.5,40.86861111,-122.0355556
BRIDGE,2005,2453555.5,1448,2453555.5,1709,0.1,40.75111111,-122.3172222
GREASEWOOD,2005,2453644.5,1005,2453644.5,1500,0.3,40.16916667,-122.7855556
SISKIYOU,2005,2453649.5,1330,2453649.5,1530,0.1,41.28388889,-122.3666667
GREGORY,2005,2453652.5,618,2453652.5,830,0.5,40.86388889,-122.3633333
SOUTH,2005,2453654.5,1900,2453654.5,2000,0.1,40.60194444,-123.4508333
OLIVE,2005,2453689.5,1945,2453689.5,2030,0.1,40.60138889,-123.4358333
FORKS,2005,2453688.5,815,2453690.5,1400,0.1,40.60222222,-123.4502778
BAGLEY,2005,2453692.5,1330,2453701.5,1800,438,40.985,-122.0177778
LAKESHORE,2005,2453694.5,1830,2453694.5,2200,0.2,40.88,-122.3966667
INTERSTATE,2005,2453724.5,2037,2453724.5,2130,0.1,32.82694444,-116.625
BUCKMAN,2005,2453719.5,1521,2453719.5,1541,0.1,32.72722222,-116.4955556
DAISY,2005,2453637.5,1615,2453637.5,1630,0.1,40.90055556,-122.3691667
POND,2005,2453719.5,2000,2453720.5,30,0.1,40.6175,-123.4175
BRIGGS,2005,2453646.5,1755,2453646.5,2200,0.1,34.45805556,-118.2988889
ELECTRIC,2005,2453675.5,1307,2453675.5,1345,0.1,34.43416667,-118.3625
SEMI,2005,2453698.5,1443,2453698.5,1525,0.1,34.77361111,-118.7625
SWIM,2005,2453709.5,1421,2453709.5,1500,0.3,34.67555556,-118.7769444
LITTLEROCK,2005,2453718.5,1506,2453718.5,1600,0.25,34.49027778,-118.025
VEHICLE,2005,2453720.5,1547,2453720.5,1810,0.1,34.55833333,-118.4027778
BLACK BUTTE #1,2005,2453695.5,1400,2453696.5,1430,0.1,41.93055556,-123.6052778
EDISON,2005,2453735.5,1036,2453735.5,1100,0.25,34.44722222,-117.9361111
COMPACT,2005,2453735.5,1108,2453735.5,1118,0.1,34.63583333,-118.7413889
OAKS,2006,2453750.5,2345,2453750.5,2350,0.1,34.22916667,-117.7791667
TREE,2006,2453749.5,1820,2453749.5,1915,0.1,34.2725,-117.625
PEACH,2005,2453694.5,1245,2453694.5,1330,0.1,37.86972222,-119.87
BRADBURY,2005,2453538.5,1850,2453538.5,2100,0.1,34.15888889,-117.9652778
GRASS,2005,2453541.5,1447,2453541.5,1515,0.1,34.25138889,-118.3175
RING,2005,2453555.5,1535,2453555.5,1615,0.1,34.34638889,-117.9127778
COBB,2005,2453562.5,2055,2453562.5,2145,0.1,34.2025,-118.1255556
FORD,2006,2453752.5,1405,2453752.5,1430,0.01,34.22972222,-117.2230556
WITLOCK,2005,2453715.5,1347,2453715.5,1500,0.01,39.98472222,-122.985
SUNLAND,2005,2453566.5,1205,2453566.5,1400,5,34.25861111,-118.33
POLE,2005,2453574.5,1520,2453574.5,1530,0.1,34.19444444,-118.1119444
MCGROARTY,2005,2453586.5,1620,2453586.5,1700,4,34.25361111,-118.3158333
PACIFICO,2005,2453588.5,1800,2453588.5,1930,0.1,34.38472222,-118.0180556
MOUNT,2005,2453588.5,1800,2453588.5,1930,0.1,34.38472222,-118.0180556
OLIVEVIEW,2005,2453592.5,1505,2453592.5,1630,0.1,34.32416667,-118.4466667
LITTLE,2005,2453592.5,1800,2453592.5,1830,0.1,34.345,-118.3522222
CABRINI,2005,2453616.5,1735,2453616.5,2000,18,34.2125,-118.3402778
CHEVROLET,2005,2453632.5,1625,2453632.5,1705,0.1,34.33583333,-118.5038889
RIVERWOOD,2005,2453640.5,1800,2453640.5,2200,2,34.28166667,-118.3161111
POLK,2005,2453641.5,1855,2453641.5,1905,0.1,34.31388889,-118.4416667
DELTA,2005,2453733.5,1155,2453733.5,1230,0.1,34.30527778,-118.2638889
ARCH,2002,2452468.5,1943,2452470.5,1200,0.1,37.44166667,-119.08
CAN,2005,2453582.5,1400,2453582.5,1410,0.1,34.30555556,-118.1136111
TUNA,2005,2453582.5,1535,2453582.5,1600,0.2,34.23777778,-118.29
SAN FERNANDO,2005,2453586.5,1050,2453586.5,1230,1.5,34.33138889,-118.5077778
VOYAGER,2006,2453753.5,1249,2453753.5,1300,0.1,34.46333333,-118.3413889
KRATKA,2005,2453588.5,1750,2453588.5,1930,0.1,34.34611111,-117.8736111
FIR,2005,2453588.5,1915,2453588.5,2030,0.1,34.36916667,-117.8738889
LOPEZ,2005,2453593.5,1115,2453593.5,1130,0.1,34.29527778,-118.3952778
OLIVE,2005,2453596.5,900,2453596.5,1135,0.1,34.33166667,-118.4408333
PEAKS,2005,2453597.5,1130,2453597.5,1730,0.1,34.32944444,-117.9311111
PICKUP,2005,2453600.5,1830,2453600.5,1835,0.1,34.27111111,-118.1594444
TRUCK,2005,2453607.5,1416,2453607.5,1630,25,34.23194444,-118.2694444
KINNELOA,2005,2453614.5,1520,2453614.5,1700,0.2,34.18055556,-118.0880556
CHILAO,2005,2453638.5,1420,2453638.5,1700,1,34.3325,-118.0263889
COOKING,2005,2453639.5,1635,2453639.5,1730,0.1,34.27666667,-118.3530556
TREE,2005,2453660.5,1000,2453660.5,1800,0.1,34.34972222,-118.0227778
TRAIL,2005,2453670.5,130,2453670.5,215,0.1,34.30611111,-118.2633333
TWO-TEN,2005,2453694.5,955,2453694.5,1015,0.1,34.25138889,-118.3177778
FROSTY,2006,2453752.5,955,2453752.5,1020,0.1,32.83444444,-116.7277778
WILLOWS,2006,2453769.5,1325,2453769.5,1430,0.1,32.835,-116.7308333
WHITE,2006,2453777.5,749,2453777.5,1603,5.9,34.91472222,-119.7133333
CASTAIC,2006,2453757.5,1429,2453757.5,1500,0.2,34.47527778,-118.6172222
YUKON,2006,2453764.5,845,2453764.5,920,0.1,34.37444444,-118.4775
YOUNG,2005,2453587.5,1446,2453587.5,1540,0.1,41.30166667,-121.7180556
TOYOTA,2006,2453779.5,1705,2453779.5,1720,0.1,34.37777778,-118.4913889
VETERANS,2006,2453743.5,1345,2453743.5,1700,0.25,34.32944444,-118.4175
SMOLDER,2006,2453790.5,127,2453790.5,925,0.1,34.23888889,-117.8513889
HAMILTON,2006,2453792.5,1058,2453792.5,1630,5.5,37.81305556,-120.0652778
SUGARLOAF,2006,2453780.5,1710,2453780.5,1900,0.3,39.84694444,-120.3063889
GUMBAS,2006,2453789.5,1620,2453789.5,1733,1,36.77611111,-120.6116667
HILLSIDE,2006,2453757.5,2110,2453757.5,2200,0.25,34.15888889,-118.0077778
LOADER,2006,2453768.5,1625,2453768.5,1635,0.1,34.29694444,-118.4002778
GOLF,2006,2453780.5,1215,2453780.5,1300,0.1,34.25472222,-118.3905556
ESKO,2006,2453778.5,1247,2453778.5,1323,3,34.27611111,-118.3477778
CHANDLER,2006,2453780.5,1323,2453780.5,1500,0.25,39.96638889,-120.9188889
WILSON,2006,2453757.5,1235,2453757.5,1238,0.1,34.25833333,-118.1055556
ELM,2006,2453736.5,1509,2453736.5,1514,0.1,33.88888889,-116.7527778
YELLOW,2006,2453764.5,1645,2453764.5,1650,0.1,33.625,-116.7111111
ALPINE,2006,2453779.5,1416,2453779.5,1430,0.1,33.875,-116.6027778
CRUICK,2006,2453767.5,1428,2453767.5,1600,0.1,35.83555556,-121.3855556
SHED,2006,2453779.5,1318,2453779.5,1330,0.1,34.23805556,-117.1863889
BUR,2006,2453810.5,1230,2453810.5,1320,0.1,34.23972222,-117.6530556
FISH,2006,2453820.5,1132,2453820.5,1210,1,34.16027778,-117.9211111
BURRO,2006,2453821.5,930,2453821.5,950,0.1,34.23944444,-117.8341667
PENDOLA,2006,2453779.5,1200,2453779.5,1500,0.5,39.48472222,-121.0513889
GRINDSTONE,2006,2453779.5,1430,2453779.5,1605,0.2,34.14388889,-116.99
SHOULDER,2006,2453824.5,1357,2453824.5,1405,0.1,34.56222222,-118.6811111
SPOT,2006,2453771.5,2125,2453771.5,2140,0.1,34.74583333,-118.7963889
WATERMAN,2006,2453776.5,1248,2453776.5,1440,0.1,40.86722222,-122.2841667
BEE #1,2006,2453827.5,830,2453827.5,1000,0.1,33.69583333,-116.8355556
PENSTOCK,2006,2453851.5,1139,2453851.5,1800,0.1,35.78944444,-118.4294444
SPORTSMANS,2006,2453855.5,400,2453855.5,600,0.5,36.11805556,-121.4694444
FORD,2006,2453836.5,823,2453836.5,826,0.1,34.18611111,-117.6763889
FLUME,2006,2453824.5,1607,2453824.5,1640,0.1,41.08555556,-122.3502778
CROCKER,2006,2453860.5,1259,2453860.5,1545,1,39.90888889,-120.4138889
CLOVER,2006,2453872.5,1013,2453872.5,1830,0.1,39.92777778,-120.4433333
HAYSTACK,2006,2453834.5,1920,2453835.5,1245,0.25,33.67222222,-116.4408333
PALM,2006,2453843.5,1212,2453843.5,2350,0.1,33.85277778,-116.5527778
MARRION,2006,2453846.5,20,2453846.5,116,0.1,33.74,-116.7144444
LOST,2006,2453864.5,1400,2453864.5,1430,0.1,41.46916667,-121.7680556
NEW ENGLAND,2006,2453874.5,1425,2453874.5,1738,0.2,39.96138889,-120.9122222
COYOTE,2006,2453872.5,1630,2453873.5,1300,0.4,39.97527778,-120.4369444
MUD,2006,2453863.5,1130,2453863.5,1330,0.1,38.81888889,-119.7502778
LAVA,2006,2453854.5,1250,2453854.5,1330,0.25,40.83972222,-121.5141667
CAVE,2006,2453880.5,1113,2453880.5,1330,0.1,40.66888889,-121.4180556
VELUZAT,2006,2453838.5,1639,2453838.5,1800,0.1,34.48944444,-118.5102778
REED,2006,2453848.5,2100,2453848.5,2115,0.5,34.6575,-118.3930556
HART,2006,2453849.5,1920,2453849.5,1959,0.1,34.62277778,-118.4125
PLANE,2006,2453848.5,1231,2453848.5,2200,0.1,34.35944444,-117.6847222
TOWER,2006,2453854.5,1041,2453854.5,1043,0.1,34.51083333,-118.4805556
RANGE,2006,2453862.5,1521,2453862.5,1545,0.1,34.67861111,-118.7783333
MARK,2006,2453865.5,1220,2453865.5,1240,0.1,34.51416667,-118.3366667
CINDER,2006,2453866.5,1035,2453866.5,1045,0.1,34.52583333,-118.3830556
EMMA,2006,2453867.5,1312,2453867.5,1430,2.5,34.50694444,-117.9933333
JUNK,2006,2453868.5,1155,2453868.5,1230,0.25,34.44972222,-117.8183333
ESCONDIDO,2006,2453869.5,1215,2453869.5,1245,0.1,34.48222222,-118.2869444
AGUA,2006,2453870.5,1529,2453870.5,1540,0.1,34.47361111,-118.3152778
ROVER,2006,2453871.5,1615,2453871.5,1640,0.1,34.4975,-118.2263889
GRUDGE,2006,2453872.5,1030,2453872.5,1040,0.1,34.52611111,-118.3830556
RING,2006,2453873.5,1720,2453873.5,1735,0.1,34.37916667,-118.4022222
LITTLE,2006,2453879.5,459,2453879.5,530,0.5,34.68611111,-118.7841667
PURITAN,2006,2453880.5,1350,2453880.5,1415,0.1,34.49583333,-118.2791667
FREEMAN,2006,2453881.5,2055,2453882.5,600,5,34.73861111,-118.8402778
ROBIN,2006,2453883.5,1908,2453883.5,2000,0.5,34.43916667,-118.2758333
LIGHTNING 1,2006,2453872.5,1639,2453872.5,1908,0.5,34.45888889,-118.0269444
LIGHTNING 2,2006,2453872.5,1705,2453872.5,1803,0.1,34.48527778,-118.0661111
DOCK,2006,2453870.5,1220,2453870.5,1321,0.1,40.10694444,-120.9466667
CHERRY,2006,2453882.5,2001,2453882.5,2100,0.3,34.63444444,-118.7372222
FRAN,2006,2453884.5,1954,2453884.5,2015,0.1,34.48388889,-118.5413889
POST,2006,2453863.5,1100,2453863.5,1900,2,40.40138889,-123.2172222
CHEVRON,2006,2453860.5,1518,2453860.5,1800,1,40.67916667,-121.4258333
DREW,2006,2453883.5,1030,2453883.5,1130,0.1,37.84861111,-119.9997222
TAHQUITZ,2006,2453864.5,955,2453870.5,1600,0.1,33.79611111,-116.6133333
225,2006,2453783.5,948,2453783.5,1015,0.1,37.16805556,-119.4294444
PLASKETT,2006,2453868.5,1630,2453868.5,1750,0.1,35.92027778,-121.4580556
PLAM CANYON,2006,2453884.5,1744,2453884.5,1755,0.1,33.79388889,-116.5916667
NOYES,2006,2453849.5,845,2453849.5,1125,0.24,41.34416667,-122.7494444
SCOTT,2006,2453849.5,1715,2453849.5,1755,0.1,41.68861111,-123.0791667
MASSEY,2006,2453869.5,1418,2453869.5,1535,0.1,39.93916667,-121.0575
INN,2006,2453889.5,1140,2453889.5,1256,0.2,36.27277778,-121.8136111
ROCKY,2006,2453884.5,1800,2453884.5,1830,0.1,39.82361111,-120.4225
SQUAW,2006,2453872.5,2000,2453872.5,2100,0.1,40.01722222,-120.4336111
ASPEN,2006,2453886.5,1500,2453886.5,1745,0.1,39.93916667,-120.3261111
PEACH,2006,2453869.5,1200,2453869.5,1202,0.1,37.86583333,-119.87
LEXUS,2006,2453896.5,1721,2453896.5,1730,0.1,34.29944444,-118.1780556
VISTA POINT,2006,2453883.5,2002,2453883.5,2015,0.1,33.58333333,-116.6313889
MOVIE,2006,2453882.5,1159,2453882.5,1220,0.5,34.56888889,-118.6861111
RALPH,2006,2453883.5,1052,2453883.5,1125,0.5,34.54583333,-118.6638889
HUGHES,2006,2453884.5,700,2453884.5,720,0.1,34.51805556,-118.6377778
VEHICLE,2006,2453889.5,1245,2453889.5,1305,0.1,34.52611111,-118.5319444
DELAGO,2006,2453891.5,205,2453891.5,245,0.1,34.66111111,-118.7555556
TORCH,2006,2453891.5,1543,2453891.5,1620,0.1,34.53194444,-118.3655556
HONDA,2006,2453894.5,1751,2453894.5,1915,0.1,34.48,-118.2919444
NORTHSIDE,2006,2453895.5,1131,2453895.5,1200,0.1,34.62916667,-118.3036111
TEMPLIN,2006,2453896.5,1303,2453896.5,1350,2,34.52611111,-118.6477778
BOOTLEGGER,2006,2453896.5,2021,2453896.5,2050,0.1,34.43222222,-118.2175
PECKS,2006,2453872.5,1940,2453873.5,1218,0.1,40.15888889,-120.8783333
PETERS,2006,2453872.5,1940,2453873.5,1000,0.1,40.17138889,-120.9172222
ELEPHANT,2006,2453872.5,1115,2453872.5,1420,0.34,40.10472222,-120.6138889
PICKUP,2006,2453902.5,1935,2453902.5,1955,0.1,34.48416667,-118.6155556
PARKER,2006,2453902.5,1918,2453902.5,1945,0.1,34.48388889,-118.6155556
BONITA,2006,2453886.5,1632,2453886.5,1650,0.5,33.92694444,-116.7916667
MARION,2006,2453896.5,1017,2453896.5,1355,1,33.79166667,-116.7569444
SODA,2006,2453900.5,1802,2453900.5,1935,0.2,40.03583333,-121.0202778
BROADWAY,2006,2453900.5,1233,2453900.5,1525,7,33.92694444,-116.7916667
HIGHWAY,2006,2453902.5,839,2453902.5,855,0.25,33.87694444,-116.875
TIMBER,2006,2453905.5,1520,2453905.5,1542,0.5,39.79805556,-120.4805556
BABCOCK,2006,2453871.5,1850,2453871.5,2020,0.1,40.11222222,-120.6236111
NORTH VALLEY,2006,2453780.5,1439,2453780.5,1600,0.25,40.10277778,-120.8480556
CAR,2006,2453901.5,1645,2453901.5,1720,0.1,34.54166667,-118.6583333
VISTA,2006,2453901.5,1651,2453901.5,2100,20,34.63277778,-118.7283333
LAKE,2006,2453902.5,1333,2453902.5,1435,0.5,34.53777778,-118.6538889
BEAR 1,2006,2453902.5,1556,2453902.5,1730,8,34.69277778,-118.7883333
BEAR 2,2006,2453902.5,1556,2453902.5,1730,1,34.69277778,-118.7883333
VAN,2006,2453902.5,1858,2453902.5,1900,0.1,34.57305556,-118.6930556
LARGO,2006,2453905.5,1218,2453905.5,1400,2,34.4825,-117.7541667
GOAT,2006,2453873.5,1800,2453873.5,2200,0.5,35.61611111,-118.3775
DARK,2006,2453857.5,1330,2453857.5,1431,0.1,39.48472222,-121.0513889
STAMP,2006,2453871.5,1637,2453871.5,2000,0.1,39.485,-120.1566667
EDE,2006,2453871.5,1700,2453871.5,2030,0.1,39.47194444,-120.1944444
HIRSCHDALE,2006,2453872.5,1800,2453872.5,2030,0.1,39.36861111,-120.0516667
CALPINE,2006,2453903.5,1005,2453903.5,1021,0.1,39.65222222,-120.4191667
PINEWOOD,2006,2453893.5,1400,2453893.5,1600,0.1,33.49194444,-116.4488889
WARNER,2006,2453890.5,1230,2453890.5,1348,0.25,40.37777778,-121.3169444
LA CIMA,2006,2453892.5,1549,2453892.5,1745,5,33.51194444,-116.6161111
CHECKER,2006,2453890.5,1244,2453890.5,1414,0.2,37.05666667,-119.1688889
BLUFF,2006,2453873.5,1130,2453873.5,1900,0.1,34.97055556,-119.9836111
GILBRALTAR,2006,2453883.5,1553,2453883.5,1642,0.5,34.49083333,-119.6888889
PARADISE,2006,2453903.5,1549,2453903.5,1800,2,34.58166667,-118.6947222
SOUTH,2006,2453906.5,1630,2453906.5,1657,0.5,34.66222222,-118.7575
ANTELOPE,2006,2453910.5,752,2453910.5,810,0.1,34.49083333,-118.1975
UNDERPASS,2006,2453910.5,1521,2453910.5,1700,8,34.49166667,-118.2825
BARTLETT,2006,2453915.5,945,2453915.5,1015,1,39.11472222,-122.8152778
RICE,2006,2453917.5,1415,2453917.5,1745,0.3,39.39972222,-122.955
ELEPHANT,2006,2453872.5,1424,2453872.5,1900,0.1,39.69416667,-120.1944444
BUSH,2006,2453911.5,1722,2453911.5,1837,0.1,39.60055556,-120.1008333
ALDER,2006,2453912.5,1100,2453912.5,1130,0.1,39.35166667,-120.2175
RESEARCH,2006,2453911.5,1755,2453911.5,2006,0.1,39.60166667,-120.1011111
CHIL,2006,2453908.5,1435,2453908.5,1900,8.75,39.78416667,-120.1338889
BURRTEC,2006,2453874.5,1425,2453874.5,1440,0.1,34.17861111,-117.6747222
TAYLOR,2006,2453911.5,1033,2453911.5,1500,0.1,39.98861111,-120.8102778
PLEASANT,2006,2453912.5,1606,2453913.5,900,0.1,39.93777778,-121.1813889
CINDER,2006,2453912.5,1302,2453914.5,910,0.1,40.48527778,-121.2444444
RIBBONWOOD,2006,2453907.5,931,2453907.5,1300,2,33.58194444,-116.5144444
SPURLOCK,2006,2453912.5,1636,2453912.5,2000,0.25,40.10416667,-120.8616667
COOKS,2006,2453912.5,1702,2453913.5,800,0.75,40.20361111,-120.8516667
MOCCASIN,2006,2453912.5,1731,2453913.5,1200,1,40.07472222,-120.9222222
RANGE,2006,2453912.5,1917,2453913.5,1100,0.1,40.17,-120.9577778
SERPENTINE,2006,2453914.5,1908,2453915.5,1115,0.25,40.01638889,-121.16
POPPET,2006,2453883.5,1315,2453883.5,1620,0.25,33.875,-116.875
111,2006,2453912.5,1230,2453912.5,1245,0.25,33.92694444,-116.6755556
243,2006,2453912.5,1347,2453912.5,1400,0.25,33.875,-116.8416667
ESPERANZA,2006,2453909.5,1915,2453909.5,2000,1,33.875,-116.75
BRIDGE,2006,2453896.5,1716,2453896.5,1725,0.1,33.75,-116.875
DRY,2006,2453909.5,1645,2453909.5,1750,0.1,38.81333333,-119.8052778
SUNSET,2006,2453917.5,800,2453917.5,1345,0.1,38.61944444,-119.8961111
MITCHELL,2006,2453899.5,1456,2453899.5,1530,1,33.57055556,-116.6813889
CRANSTON,2006,2453916.5,1822,2453916.5,2000,0.2,33.73694444,-116.825
FAITH,2006,2453915.5,2200,2453918.5,1330,0.25,38.66805556,-119.95
MUGGINS,2006,2453914.5,2044,2453915.5,1015,0.75,40.08722222,-121.0936111
MILL,2006,2453916.5,1459,2453917.5,1500,0.1,39.96722222,-121.1813889
DIAMOND,2006,2453911.5,1415,2453911.5,2100,0.25,40.31555556,-120.7255556
LONG VALLEY,2006,2453920.5,2350,2453921.5,1100,0.3,38.8,-119.7408333
LAWNMOWER,2006,2453887.5,1657,2453887.5,1730,0.1,34.41444444,-118.3963889
CAPRA,2006,2453899.5,1405,2453899.5,1425,0.1,34.43,-118.355
ROAD,2006,2453912.5,1031,2453912.5,1100,0.5,34.50027778,-118.6247222
TRUCK,2006,2453913.5,845,2453913.5,847,0.1,34.53083333,-118.3702778
AVOCADO,2006,2453917.5,1137,2453917.5,1200,0.1,34.46833333,-118.5347222
CABIN,2006,2453919.5,1906,2453919.5,1930,0.1,34.55361111,-118.4205556
LIVE,2006,2453919.5,2302,2453919.5,2350,0.1,34.37805556,-118.4058333
DULCE,2006,2453920.5,2116,2453920.5,2200,0.5,34.43888889,-118.3333333
GRASSHOPPER,2006,2453921.5,1350,2453921.5,1440,0.5,34.39138889,-118.4611111
MINE,2006,2453910.5,2045,2453910.5,2215,0.1,34.35833333,-117.7430556
SIGN,2006,2453913.5,1445,2453913.5,1500,0.25,34.49166667,-118.2805556
SIERRA,2006,2453916.5,1243,2453916.5,1300,2,34.49083333,-118.2122222
LOT,2006,2453917.5,410,2453917.5,830,0.1,34.41194444,-117.8522222
CANYON,2006,2453911.5,1413,2453911.5,2030,26.5,34.79333333,-119.3341667
CASA,2006,2453918.5,1616,2453918.5,1832,0.1,37.5725,-118.5675
LUTHER,2006,2453914.5,1800,2453915.5,1630,0.25,38.85333333,-119.8297222
COMPOUND,2006,2453912.5,2315,2453913.5,30,0.25,38.26805556,-119.2847222
SUSAN,2006,2453912.5,1130,2453912.5,1400,0.1,40.48833333,-121.0980556
ROCKY,2006,2453891.5,1500,2453891.5,1530,0.1,40.19083333,-121.1152778
BOWROCK,2006,2453904.5,1150,2453904.5,1205,0.1,39.46166667,-120.6316667
CAPE,2006,2453916.5,816,2453916.5,1415,0.1,39.45194444,-121.0669444
CRYSTAL,2006,2453911.5,2030,2453914.5,1800,5,40.20361111,-120.5411111
SMITH,2006,2453911.5,2030,2453916.5,1800,2,40.18166667,-120.5319444
DOC,2006,2453911.5,2030,2453914.5,1800,9,40.19722222,-120.5394444
WEMPLE,2006,2453911.5,2030,2453914.5,1800,2,40.20527778,-120.5575
EAGLE,2006,2453915.5,1100,2453915.5,1630,0.1,39.96833333,-120.1013889
CISQUITO,2006,2453900.5,1155,2453900.5,1230,1,34.645,-118.3577778
LOOKOUT,2006,2453915.5,930,2453915.5,1135,0.1,39.97472222,-120.2430556
GRASS,2006,2453901.5,1208,2453901.5,1245,0.1,34.56916667,-118.6886111
SMOKEY,2006,2453901.5,1317,2453901.5,1345,0.1,34.72361111,-118.7972222
CONSTANTIA,2006,2453915.5,930,2453915.5,1135,9.7,39.93888889,-120.0555556
CANYON,2006,2453901.5,1605,2453901.5,1630,2,34.56444444,-118.6819444
NORTHBOUND,2006,2453901.5,1718,2453901.5,1735,0.1,34.75277778,-118.7941667
MCCRAE,2006,2453911.5,1908,2453911.5,2057,0.01,39.7425,-120.7655556
RIG,2006,2453907.5,600,2453907.5,700,0.5,34.69722222,-118.7913889
O FEATHER,2006,2453914.5,935,2453915.5,1035,0.1,39.78222222,-120.5086111
BRIDGE,2006,2453919.5,1951,2453919.5,2000,0.1,34.50222222,-118.6288889
MARPLE,2006,2453922.5,1324,2453922.5,1505,25,34.50777778,-118.6319444
CROWN,2006,2453923.5,2132,2453923.5,2145,0.1,34.49027778,-118.2
LONG,2006,2453913.5,2012,2453914.5,1944,0.1,39.91888889,-120.4516667
PENMAN,2006,2453911.5,1924,2453912.5,1740,1,39.82527778,-120.5963889
PINEY,2006,2453912.5,1800,2453912.5,2107,0.1,39.70222222,-120.5988889
FRAZIER,2006,2453911.5,1900,2453911.5,2012,0.1,39.72138889,-120.6336111
LOST,2006,2453911.5,2120,2453912.5,1235,1,40.19666667,-120.5955556
SOUTH,2006,2453913.5,1830,2453914.5,1625,0.1,39.90722222,-120.4405556
EAST,2006,2453911.5,2133,2453912.5,900,0.75,40.1975,-120.5783333
LUNKER,2006,2453912.5,1646,2453916.5,1800,0.3,39.92305556,-120.2644444
SCOTT,2006,2453924.5,1700,2453925.5,1900,0.3,38.74694444,-119.8416667
COOT,2006,2453912.5,1710,2453914.5,1800,0.1,39.83694444,-120.1316667
CABIN,2006,2453911.5,2135,2453913.5,1800,0.5,40.15222222,-120.5938889
LITTLE,2006,2453911.5,2030,2453913.5,1800,8,40.17138889,-120.5625
HALLETT,2006,2453911.5,2030,2453917.5,1900,5,40.21666667,-120.5902778
GOLD,2006,2453924.5,1705,2453925.5,1200,0.1,38.64444444,-119.7883333
PIONEER,2006,2453912.5,1210,2453912.5,1800,4,40.17138889,-120.5625
JAM,2006,2453912.5,1641,2453912.5,2000,0.1,39.53361111,-120.1019444
ECHO,2006,2453912.5,1500,2453913.5,1200,0.1,40.45027778,-121.1777778
INDIAN,2006,2453912.5,830,2453916.5,1800,16,40.15194444,-120.6169444
SPRING VALLEY,2006,2453913.5,1840,2453913.5,2143,0.1,39.71805556,-120.4022222
BARNES,2006,2453913.5,1130,2453913.5,1700,0.1,40.47333333,-121.1
ROBIN,2006,2453913.5,1825,2453913.5,1919,0.1,39.65166667,-120.4180556
MINE,2006,2453924.5,1800,2453925.5,1700,0.25,38.64888889,-119.7783333
HAY,2006,2453893.5,1440,2453893.5,1500,0.1,34.65416667,-118.7541667
HAYS,2006,2453897.5,1531,2453897.5,1600,0.1,34.65416667,-118.7541667
KETTLE,2006,2453912.5,1757,2453917.5,2100,0.25,40.14388889,-120.7147222
WINDMILL,2006,2453913.5,1825,2453914.5,1354,0.1,39.58416667,-120.2505556
FORK,2006,2453913.5,700,2453913.5,1708,0.2,40.12472222,-120.7527778
DARK 2,2006,2453914.5,1040,2453914.5,1501,0.1,39.56805556,-120.2505556
BRIDGE,2006,2453913.5,2046,2453914.5,2000,0.1,40.04916667,-120.6788889
NORTH,2006,2453913.5,1502,2453914.5,1430,0.25,39.41888889,-120.4522222
BADENAUGH,2006,2453915.5,1339,2453915.5,1727,0.1,39.60138889,-120.1180556
MARK,2006,2453925.5,800,2453925.5,1600,0.1,38.70722222,-119.7933333
PLEASANT,2006,2453924.5,1830,2453925.5,1000,0.1,38.65305556,-119.7983333
ROCK,2006,2453914.5,1753,2453916.5,1800,1,40.13722222,-120.7333333
LONESOME,2006,2453913.5,1600,2453914.5,1800,1,40.22861111,-120.6713889
GRAYS,2006,2453924.5,1900,2453925.5,100,0.1,38.61444444,-119.6641667
GROWERS,2006,2453913.5,1600,2453914.5,1800,0.1,40.22527778,-120.6308333
CRATER,2006,2453925.5,1750,2453926.5,1000,0.1,38.72027778,-119.9722222
YELLOW,2006,2453915.5,1656,2453917.5,1800,0.1,40.05083333,-121.2722222
LUCKY,2006,2453917.5,1420,2453918.5,900,0.2,40.15888889,-120.7569444
TWIN,2006,2453912.5,823,2453912.5,1924,0.2,37.42166667,-119.0180556
ONION,2006,2453912.5,1350,2453912.5,2045,0.1,37.41166667,-119.0677778
GRAVEYARD,2006,2453912.5,1844,2453913.5,1200,0.1,37.41916667,-118.9663889
COW,2006,2453913.5,738,2453913.5,1500,0.5,37.42055556,-119.1913889
SOLEDAD,2006,2453925.5,37,2453925.5,130,2,34.46361111,-118.3413889
PLYMOUTH,2006,2453926.5,1906,2453926.5,1930,0.1,34.4975,-118.265
LONG,2006,2453918.5,1030,2453920.5,1800,0.1,38.45222222,-119.5775
RAYMOND,2006,2453924.5,1830,2453929.5,1800,0.1,38.5975,-119.8263889
KNOLL,2006,2453915.5,1035,2453915.5,1530,0.25,37.67861111,-118.9602778
SPRATT,2006,2453925.5,1600,2453932.5,1800,0.1,38.64388889,-119.8269444
A-1,2006,2453912.5,1500,2453912.5,1826,3,39.51916667,-120.5683333
VACA,2006,2453914.5,730,2453914.5,1157,0.75,39.75083333,-120.4336111
COOT,2006,2453921.5,1751,2453921.5,2008,0.5,39.78583333,-120.1683333
MURPHY,2006,2453773.5,1600,2453773.5,1615,0.1,40.30583333,-123.4816667
SONORA 1,2006,2453925.5,1520,2453925.5,2000,1,38.3625,-119.4630556
INDIAN,2006,2453926.5,1900,2453927.5,1930,0.25,38.62861111,-119.7877778
WOLF,2006,2453927.5,1730,2453928.5,1900,2,38.53638889,-119.6983333
ROCK,2006,2453913.5,900,2453914.5,800,1,40.86888889,-120.5305556
LONG,2006,2453913.5,1700,2453914.5,1400,0.25,40.74472222,-121.2355556
BIG,2006,2453912.5,1700,2453913.5,1900,0.1,40.83194444,-120.9916667
JACK,2006,2453913.5,930,2453913.5,2100,3,40.84222222,-120.9916667
LAKE,2006,2453913.5,930,2453913.5,1900,0.1,40.84027778,-120.9986111
BIGJACK,2006,2453913.5,1030,2453913.5,1700,0.1,40.83277778,-120.99
CHESEBORO,2006,2453911.5,138,2453911.5,1620,170,34.49111111,-118.0255556
PEAK,2006,2453912.5,1900,2453912.5,1941,0.1,39.69861111,-120.6194444
FLYNN,2006,2453914.5,1720,2453914.5,1954,0.1,39.88833333,-120.4005556
RUBY,2006,2453912.5,1640,2453912.5,1757,0.1,39.83833333,-120.4083333
SHELBY,2006,2453912.5,1543,2453913.5,1757,0.1,39.25555556,-120.4375
DOYLE,2006,2453914.5,1830,2453914.5,2045,0.01,40.00888889,-120.1691667
EAGLE,2006,2453925.5,1415,2453926.5,2000,0.25,38.58416667,-119.8194444
BEAVER,2006,2453913.5,1730,2453913.5,2200,0.5,40.87055556,-121.2555556
RANCH,2006,2453925.5,800,2453925.5,1800,0.25,40.28277778,-121.5391667
WILEY,2006,2453925.5,1000,2453925.5,1700,0.25,41.28305556,-121.5486111
POWER,2006,2453925.5,1000,2453925.5,1800,0.25,41.27111111,-121.5808333
BRAY,2006,2453877.5,1700,2453877.5,1745,0.1,41.64833333,-121.9983333
RAILROAD,2006,2453878.5,1703,2453878.5,2030,0.2,41.64361111,-122.0088889
89,2006,2453922.5,1600,2453922.5,1700,0.1,40.72027778,-121.4355556
GARNER,2006,2453924.5,1730,2453925.5,1800,0.5,41.59944444,-121.8069444
COON,2006,2453914.5,500,2453915.5,1800,4.6,40.97638889,-123.6144444
SYCAMORE,2006,2453921.5,1312,2453921.5,1424,0.1,36.96972222,-119.3194444
EASTSIDE LANE,2006,2453926.5,2130,2453926.5,2230,0.5,38.50027778,-119.45
GULCH,2006,2453902.5,1229,2453902.5,1423,0.1,41.2025,-122.9172222
VERMILLION,2006,2453926.5,1450,2453927.5,1745,0.4,37.39666667,-118.7966667
SONORA 2,2006,2453925.5,1500,2453925.5,1756,0.1,38.35,-119.4669444
HART K RANCH,2006,2453832.5,1543,2453832.5,1719,0.1,40.06583333,-120.6872222
CHAPMAN,2006,2453911.5,1750,2453911.5,1930,0.1,39.70138889,-120.6102778
BLOOMER,2006,2453914.5,1800,2453914.5,2130,0.1,39.97722222,-120.1897222
TRAILER FIRE,2006,2453929.5,1800,2453929.5,1930,0.1,39.89222222,-120.4791667
HAPPY,2006,2453924.5,2047,2453925.5,2000,2,39.87055556,-120.6055556
MEADOW,2006,2453924.5,1657,2453925.5,1200,0.1,39.90833333,-120.5261111
GRILL,2006,2453919.5,1814,2453919.5,2010,4.3,34.60111111,-119.3541667
PROSSER,2006,2453918.5,1140,2453918.5,1230,0.5,39.385,-120.1505556
LAD,2006,2453915.5,1600,2453916.5,1230,0.1,39.08333333,-120.3013889
POLE,2006,2453915.5,1000,2453916.5,1215,0.25,39.23555556,-120.2022222
ANDERSON,2006,2453914.5,1100,2453914.5,1349,0.25,39.26833333,-120.285
SHOOTING,2006,2453910.5,1830,2453910.5,1845,0.1,39.40083333,-120.1838889
LAKE,2006,2453905.5,1343,2453905.5,1712,1,39.38388889,-120.1508333
PLANTATION,2006,2453896.5,1515,2453896.5,1639,1,34.28833333,-118.1852778
DISAPPOINTMENT,2006,2453832.5,2350,2453833.5,1730,0.1,34.25722222,-118.1055556
EDGE,2006,2453917.5,40,2453917.5,100,1,34.22694444,-118.1769444
BAILEY,2006,2453884.5,1023,2453884.5,1155,0.25,34.30555556,-118.3886111
OAK,2006,2453907.5,730,2453907.5,809,0.8,34.31833333,-118.3302778
MAY,2006,2453917.5,1210,2453917.5,1230,0.1,34.32944444,-118.4141667
MEMORIAL,2006,2453917.5,1433,2453917.5,1600,0.1,34.32944444,-118.4141667
KAGEL,2006,2453919.5,2220,2453919.5,2240,0.1,34.31138889,-118.3869444
SWITZERS,2006,2453912.5,618,2453912.5,630,1,34.26555556,-118.1488889
GREENHORN,2006,2453924.5,1547,2453924.5,1903,0.1,39.9175,-120.7263889
GRIZZLY,2006,2453924.5,1649,2453925.5,1220,0.1,39.99861111,-120.7633333
SOUTH,2006,2453918.5,700,2453918.5,1400,0.2,33.73861111,-116.6975
CASTILE,2006,2453920.5,2125,2453920.5,2140,0.1,33.78555556,-116.8941667
LUCKY,2006,2453924.5,2128,2453924.5,2300,0.1,33.74055556,-116.8025
CAREY,2006,2453928.5,1245,2453928.5,1800,160,33.55527778,-116.7594444
CAVE,2006,2453931.5,1315,2453931.5,1900,35,33.56388889,-116.7213889
INDIAN,2006,2453915.5,1300,2453915.5,1600,0.1,40.19333333,-121.3188889
HOME,2006,2453882.5,2145,2453882.5,2230,0.01,34.48694444,-119.3030556
WALKER,2006,2453925.5,900,2453925.5,1230,0.1,39.93222222,-120.7102778
OSPREY,2006,2453924.5,1615,2453924.5,1700,0.25,39.93138889,-120.5527778
KLAMATH,2006,2453937.5,700,2453937.5,1030,0.1,41.86194444,-122.7461111
JUNIPER,2006,2453934.5,1800,2453935.5,1820,0.25,38.64583333,-119.7991667
POTATO,2006,2453931.5,1130,2453931.5,1230,0.25,40.66361111,-121.4572222
RED TAIL,2006,2453924.5,1645,2453925.5,1200,0.1,39.90694444,-120.5202778
WOLF 2,2006,2453934.5,1915,2453935.5,1830,0.1,38.5775,-119.71
NORTH,2006,2453917.5,1548,2453918.5,1258,2,40.10861111,-120.8166667
TURN AROUND,2006,2453934.5,1330,2453934.5,1730,0.25,40.51694444,-121.2336111
MISSION,2006,2453925.5,1349,2453925.5,1500,0.25,40.14583333,-120.9088889
GOLD DIGGER,2006,2453931.5,1354,2453931.5,1441,0.01,40.17277778,-120.9702778
COBLE,2006,2453907.5,1400,2453907.5,1530,0.01,40.84416667,-121.3627778
BUTT,2006,2453915.5,1200,2453915.5,1405,0.1,40.19333333,-121.3188889
BUTTE,2006,2453924.5,2000,2453924.5,2359,0.2,41.61444444,-121.8830556
FALCON,2006,2453933.5,1739,2453933.5,2000,0.1,34.36388889,-118.0916667
LAHONDA,2006,2453924.5,1930,2453925.5,1300,0.1,41.64388889,-121.8630556
FIRST,2006,2453913.5,1900,2453913.5,2030,0.25,41.68444444,-122.1172222
LAHONDA II,2006,2453925.5,935,2453925.5,1200,0.2,41.64388889,-121.8516667
HAYSTACK,2006,2453935.5,1726,2453935.5,1753,0.1,37.27861111,-118.9688889
EAST FIRE,2006,2453925.5,1250,2453925.5,1700,0.1,41.63305556,-121.8547222
GLASS,2006,2453926.5,1630,2453926.5,2000,0.25,41.59694444,-121.7188889
GRADE,2006,2453913.5,1116,2453913.5,1531,0.5,37.52138889,-118.6108333
BUTTERMILKS,2006,2453924.5,1826,2453924.5,2200,5,37.34166667,-118.5547222
CLIMBING,2006,2453925.5,1618,2453925.5,1743,0.1,37.32611111,-118.5741667
GOODALE,2006,2453912.5,1437,2453916.5,800,3747.1,36.97638889,-118.2644444
HARVEY,2006,2453939.5,1553,2453939.5,1835,0.1,40.73527778,-121.0833333
KNIGHT,2006,2453875.5,1930,2453876.5,1000,0.1,38.15222222,-120.2341667
LONG,2006,2453918.5,2322,2453919.5,1300,1,38.08555556,-120.1013889
POLE,2006,2453938.5,800,2453938.5,1130,0.25,40.65555556,-121.2997222
LONG LAKE,2006,2453939.5,1730,2453939.5,1900,0.1,38.21666667,-119.5805556
INLET,2006,2453938.5,404,2453938.5,434,0.1,34.1825,-117.8802778
STAR,2006,2453938.5,1930,2453938.5,2000,0.25,38.38166667,-119.2430556
WOODS,2006,2453940.5,1000,2453940.5,1130,0.1,41.6075,-122.0836111
BANDIDO,2006,2453933.5,1607,2453933.5,1630,0.1,34.34305556,-117.9997222
WALTERS,2006,2453940.5,1945,2453940.5,2030,0.1,38.28666667,-119.2680556
MASONIC,2006,2453933.5,1600,2453933.5,1630,0.1,38.40305556,-119.1408333
HUNTOON,2006,2453940.5,2000,2453940.5,2100,0.1,38.28055556,-119.2972222
BULLION,2006,2453937.5,1630,2453937.5,2000,0.25,38.65055556,-119.7361111
CORBETT,2006,2453937.5,1757,2453938.5,1629,0.1,37.29305556,-119.0366667
WHITEHAWK,2006,2453938.5,1854,2453938.5,2030,0.1,39.73222222,-120.5566667
JACKASS,2006,2453933.5,1615,2453937.5,1800,6255,38.55166667,-119.3594444
SULPHUR,2006,2453940.5,1609,2453942.5,1600,0.1,34.36444444,-117.9780556
LOST,2006,2453933.5,1700,2453934.5,1019,2.5,38.46861111,-119.5116667
ED,2006,2453937.5,1842,2453938.5,1600,0.1,37.42694444,-118.9908333
EAGLE CREEK II,2006,2453934.5,1619,2453935.5,1200,0.1,38.21666667,-119.35
MIRROR,2006,2453934.5,1939,2453935.5,1310,0.1,37.2125,-119.1322222
HALF,2006,2453939.5,616,2453939.5,1842,0.1,37.36694444,-119.15
PINETOP,2006,2453934.5,1030,2453936.5,1600,0.1,38.4175,-119.5008333
RODRIQUES,2006,2453933.5,1600,2453933.5,1930,0.1,38.53333333,-119.5347222
DEE,2006,2453939.5,915,2453939.5,1400,0.1,37.34611111,-119.0408333
ROUND,2006,2453938.5,1005,2453938.5,1040,0.1,37.30166667,-119.1447222
TUNNEL,2006,2453937.5,1903,2453938.5,1223,0.1,37.31972222,-119.0513889
GULCH,2006,2453917.5,2129,2453918.5,100,1,34.22111111,-117.8544444
SLIDE,2006,2453940.5,1830,2453940.5,2247,1,38.58694444,-119.4552778
BOOTLEG,2006,2453934.5,1900,2453935.5,1300,0.1,38.42166667,-119.4838889
EMERSON,2006,2453926.5,1226,2453926.5,1400,0.3,33.73694444,-116.7275
WILLOW WAY,2006,2453945.5,1306,2453945.5,1430,0.1,40.16722222,-120.9591667
BUTTE,2006,2453938.5,930,2453938.5,1200,0.1,40.63305556,-121.2977778
TRASH,2006,2453937.5,1310,2453937.5,1315,0.1,34.35861111,-118.3852778
BIG FIRE,2006,2453775.5,1200,2453777.5,1500,0.1,37.42555556,-119.5858333
FOOTMAN,2006,2453863.5,1600,2453863.5,1635,0.1,37.54222222,-119.8069444
MCLEOD,2006,2453910.5,2100,2453911.5,1200,0.25,37.36388889,-119.5472222
THORNBERRY,2006,2453911.5,2200,2453911.5,2359,0.5,37.28055556,-119.5944444
SILVER,2006,2453948.5,1530,2453948.5,1930,0.1,40.49722222,-121.1827778
PALMS 2,2006,2453931.5,1830,2453932.5,1530,7,33.61583333,-116.5130556
SPRINGS,2006,2453934.5,1024,2453934.5,1430,10,33.88027778,-116.6138889
JUNCTION,2006,2453920.5,2250,2453920.5,2315,0.25,34.28694444,-118.4102778
SUNLAND,2006,2453921.5,955,2453921.5,1020,0.1,34.25305556,-118.3436111
BALD,2006,2453931.5,1311,2453931.5,1430,0.1,39.65277778,-121.0191667
VILLA,2006,2453940.5,1635,2453940.5,1645,0.1,34.18,-118.0802778
KINSLEY,2006,2453946.5,1134,2453946.5,1616,3.5,37.72416667,-119.9980556
TANKER,2006,2453926.5,1346,2453926.5,1405,0.2,34.70694444,-118.7944444
HILL,2006,2453926.5,1836,2453926.5,2100,0.1,34.34166667,-117.6005556
POSEY,2006,2453927.5,1651,2453927.5,1700,0.1,34.65194444,-118.7527778
MOWER,2006,2453934.5,933,2453934.5,945,0.1,34.52333333,-118.2875
SEDAN,2006,2453934.5,1731,2453934.5,1740,0.1,34.36416667,-118.5036111
BIG,2006,2453935.5,1509,2453935.5,1545,2,34.50305556,-118.625
CIMA,2006,2453936.5,1547,2453936.5,1640,1,34.44944444,-117.9563889
BASIN,2006,2453936.5,1715,2453936.5,1750,0.1,34.47194444,-118.0225
PILLSBURY,2006,2453944.5,1300,2453944.5,1930,0.25,39.41805556,-122.9275
FRIEND,2006,2453935.5,1325,2453935.5,2000,3,34.49194444,-119.2838889
SOUTH HUMBUG,2006,2453940.5,1930,2453940.5,2200,0.1,41.76555556,-122.6805556
SWEETWATER,2006,2453940.5,1930,2453941.5,1452,0.1,41.79416667,-122.7388889
ELECTRICAL,2006,2453945.5,1609,2453945.5,1710,0.1,34.26166667,-118.1872222
HIGHLAND,2006,2453938.5,1245,2453938.5,2000,80,34.43833333,-117.7138889
POKER,2006,2453912.5,904,2453912.5,1400,1.05,39.68444444,-120.8483333
BARREL,2006,2453938.5,1412,2453938.5,1430,0.1,34.51388889,-118.0294444
BURNHAM,2006,2453938.5,1920,2453945.5,1200,0.1,34.36083333,-117.7513889
STRIKE,2006,2453941.5,1648,2453942.5,2100,0.2,34.39,-117.8341667
BEAR,2006,2453938.5,1013,2453938.5,1628,0.1,37.38694444,-118.9308333
NACIMIENTO,2006,2453939.5,1245,2453939.5,1500,0.01,35.93888889,-121.4275
WEST,2006,2453941.5,925,2453941.5,1100,0.1,34.505,-119.8133333
PARTINGTON,2006,2453945.5,800,2453945.5,1700,0.1,36.18694444,-121.7013889
MUSICK,2006,2453927.5,824,2453927.5,1207,0.7,37.16111111,-119.3063889
PORTEGUESE,2006,2453940.5,734,2453940.5,1256,0.1,37.38277778,-119.1180556
FORD,2006,2453891.5,1256,2453891.5,1310,0.01,36.27805556,-116.8694444
MASON,2006,2453938.5,1842,2453939.5,600,3.5,37.19388889,-119.315
CAMP,2006,2453937.5,1735,2453938.5,1603,0.75,37.38666667,-119.065
FAWN,2006,2453937.5,632,2453937.5,1613,0.2,37.44444444,-119.12
QUINCY,2006,2453923.5,1421,2453923.5,1445,0.1,39.69722222,-121.3722222
STRAWBERRY,2006,2453936.5,1459,2453936.5,1751,0.1,39.55194444,-121.1255556
CENTER,2006,2453914.5,1930,2453914.5,2030,0.1,40.80944444,-121.5038889
HEDRICK,2006,2453936.5,1052,2453945.5,1430,0.2,37.41611111,-119.0702778
FORK,2006,2453952.5,1200,2453952.5,2000,0.1,38.67138889,-119.9225
WILLOW,2006,2453951.5,2100,2453952.5,1330,0.1,38.79666667,-119.9072222
JUNIPER KNOLL,2006,2453924.5,1900,2453924.5,2030,0.1,41.83388889,-121.9847222
DAVIS,2006,2453939.5,1855,2453939.5,1920,0.25,41.66333333,-121.7358333
RIBBON,2006,2453936.5,1711,2453936.5,2355,5,33.58555556,-116.5527778
BALDY,2006,2453938.5,1530,2453938.5,1900,0.25,33.73333333,-116.7333333
FILSON,2006,2453939.5,1700,2453940.5,2100,0.26,41.55777778,-122.0297222
SCHRODER,2006,2453911.5,1557,2453912.5,2300,20,40.80166667,-121.1172222
LAKE,2006,2453938.5,1641,2453938.5,2042,0.01,33.65777778,-116.7005556
MURKEN,2006,2453939.5,1700,2453939.5,2359,41,40.81944444,-121.4366667
WHITE,2006,2453940.5,1300,2453946.5,1800,80,41.28305556,-121.4791667
BUCK,2006,2453938.5,1813,2453938.5,1857,0.01,33.75555556,-116.7552778
SPLINTER,2006,2453940.5,1300,2453940.5,1530,0.1,41.55972222,-122.0311111
CEDAR,2006,2453940.5,1300,2453940.5,1800,0.2,41.71472222,-121.8694444
OAK 2,2006,2453939.5,1334,2453941.5,1530,225,33.62666667,-116.8405556
WHALE,2006,2453940.5,800,2453941.5,1130,0.1,41.48666667,-122.1161111
HOT,2006,2453913.5,917,2453913.5,1030,0.1,33.29916667,-116.6327778
SLASH,2006,2453913.5,1645,2453913.5,1705,0.1,33.31666667,-116.8516667
SAND,2006,2453948.5,1004,2453948.5,1020,0.1,34.37611111,-118.4291667
WHITNEY,2006,2453890.5,1630,2453890.5,1700,1,34.34222222,-118.5052778
WEST,2006,2453919.5,2055,2453919.5,2105,0.1,34.24138889,-117.87
DOANE,2006,2453923.5,2045,2453923.5,2200,0.1,33.33333333,-116.9
JOHNSON,2006,2453941.5,1230,2453941.5,1305,0.1,40.10777778,-120.35
HILL,2006,2453945.5,1100,2453945.5,1400,0.25,39.38388889,-120.1266667
RECON,2006,2453913.5,1520,2453913.5,1815,0.1,39.88833333,-120.2875
MADELENA,2006,2453913.5,1700,2453913.5,2200,0.1,39.8,-120.3
RATTLESNAKE,2006,2453951.5,1012,2453952.5,1015,0.1,39.88,-120.7730556
STATION,2006,2453949.5,1700,2453949.5,1750,0.1,39.20055556,-120.2008333
EGG,2006,2453938.5,730,2453938.5,1015,0.1,39.96777778,-120.1880556
HUFFMAN,2006,2453943.5,1155,2453943.5,1305,0.1,39.86916667,-120.7152778
SOUTH 2,2006,2453914.5,1200,2453914.5,1300,0.25,33.30194444,-116.8836111
PORTOLA,2006,2453906.5,1402,2453906.5,1500,0.1,39.80305556,-120.4725
CHIEF,2006,2453949.5,1945,2453949.5,2030,0.1,39.23388889,-120.2127778
SCOTT,2006,2453914.5,1751,2453915.5,1300,0.1,39.87638889,-120.1013889
BALD,2006,2453942.5,1429,2453942.5,2000,0.25,39.60111111,-120.9347222
BACON,2006,2453938.5,700,2453938.5,1130,0.1,40.0725,-120.3647222
